{
    "stations": [{
            "name": "Korntal",
            "coordinates": {
                "lat": 48.8463801,
                "lng": 9.1072089
            }
        },
        {
            "name": "Neuwirtshaus(Porscheplatz)",
            "coordinates": {
                "lat": 48.8337573,
                "lng": 9.1521138
            }
        },
        {
            "name": "Winnenden",
            "coordinates": {
                "lat": 48.8750046,
                "lng": 9.397142299999999
            }
        },
        {
            "name": "Weilimdorf",
            "coordinates": {
                "lat": 48.81418,
                "lng": 9.1121079
            }
        },
        {
            "name": "Maubach",
            "coordinates": {
                "lat": 48.92306900000001,
                "lng": 9.43038
            }
        },
        {
            "name": "Backnang",
            "coordinates": {
                "lat": 48.9471455,
                "lng": 9.434181299999999
            }
        },
        {
            "name": "Freiberg(Neckar)",
            "coordinates": {
                "lat": 48.9334303,
                "lng": 9.1992433
            }
        },
        {
            "name": "Böblingen",
            "coordinates": {
                "lat": 48.6813312,
                "lng": 9.0088299
            }
        },
        {
            "name": "Endersbach",
            "coordinates": {
                "lat": 48.8109669,
                "lng": 9.3659947
            }
        },
        {
            "name": "Beutelsbach",
            "coordinates": {
                "lat": 48.8016461,
                "lng": 9.3883618
            }
        },
        {
            "name": "Filderstadt",
            "coordinates": {
                "lat": 48.67819739999999,
                "lng": 9.2161353
            }
        },
        {
            "name": "Grunbach",
            "coordinates": {
                "lat": 48.810505,
                "lng": 9.420195
            }
        },
        {
            "name": "Geradstetten",
            "coordinates": {
                "lat": 48.8097646,
                "lng": 9.443185399999999
            }
        },
        {
            "name": "Winterbach(b Schorndorf)",
            "coordinates": {
                "lat": 48.7984929,
                "lng": 9.4814023
            }
        },
        {
            "name": "Bondorf(b Herrenberg)",
            "coordinates": {
                "lat": 48.5234991,
                "lng": 8.8280665
            }
        },
        {
            "name": "Ergenzingen",
            "coordinates": {
                "lat": 48.4962758,
                "lng": 8.8108089
            }
        },
        {
            "name": "Oberndorf(Neckar)",
            "coordinates": {
                "lat": 48.2946154,
                "lng": 8.5765805
            }
        },
        {
            "name": "Gäufelden",
            "coordinates": {
                "lat": 48.5536742,
                "lng": 8.8299208
            }
        },
        {
            "name": "Ellental",
            "coordinates": {
                "lat": 48.95530280000001,
                "lng": 9.1235834
            }
        },
        {
            "name": "Horb",
            "coordinates": {
                "lat": 48.442078,
                "lng": 8.684851199999999
            }
        },
        {
            "name": "Mainz Hbf",
            "coordinates": {
                "lat": 50.001481,
                "lng": 8.2590637
            }
        },
        {
            "name": "Rottweil",
            "coordinates": {
                "lat": 48.1652577,
                "lng": 8.628453
            }
        },
        {
            "name": "Stuttgart-Obertürkheim",
            "coordinates": {
                "lat": 48.76529009999999,
                "lng": 9.2681633
            }
        },
        {
            "name": "Mannheim-Neckarau",
            "coordinates": {
                "lat": 49.4542902,
                "lng": 8.4906118
            }
        },
        {
            "name": "Ehningen(b Böblingen)",
            "coordinates": {
                "lat": 48.6619979,
                "lng": 8.9433788
            }
        },
        {
            "name": "Mannheim-Rheinau",
            "coordinates": {
                "lat": 49.4320257,
                "lng": 8.527523799999999
            }
        },
        {
            "name": "Nufringen",
            "coordinates": {
                "lat": 48.623414,
                "lng": 8.8897002
            }
        },
        {
            "name": "Neulußheim",
            "coordinates": {
                "lat": 49.2918859,
                "lng": 8.5216709
            }
        },
        {
            "name": "Blankenloch",
            "coordinates": {
                "lat": 49.06861199999999,
                "lng": 8.4738774
            }
        },
        {
            "name": "Edesheim(Pfalz)",
            "coordinates": {
                "lat": 49.26270599999999,
                "lng": 8.131542399999999
            }
        },
        {
            "name": "Karlsruhe West",
            "coordinates": {
                "lat": 49.0068901,
                "lng": 8.4036527
            }
        },
        {
            "name": "Steinweiler",
            "coordinates": {
                "lat": 49.1207457,
                "lng": 8.1397713
            }
        },
        {
            "name": "Knöringen-Essingen",
            "coordinates": {
                "lat": 49.237291,
                "lng": 8.1480511
            }
        },
        {
            "name": "Bruchsal Bildungszentrum",
            "coordinates": {
                "lat": 49.1100488,
                "lng": 8.5740213
            }
        },
        {
            "name": "Bruchsal",
            "coordinates": {
                "lat": 49.1249712,
                "lng": 8.5844107
            }
        },
        {
            "name": "Untergrombach",
            "coordinates": {
                "lat": 49.08645689999999,
                "lng": 8.5532136
            }
        },
        {
            "name": "Bad Schönborn Süd",
            "coordinates": {
                "lat": 49.1999633,
                "lng": 8.6420628
            }
        },
        {
            "name": "Wiesloch-Walldorf",
            "coordinates": {
                "lat": 49.3063689,
                "lng": 8.6427693
            }
        },
        {
            "name": "Bad Schönborn-Kronau",
            "coordinates": {
                "lat": 49.2206427,
                "lng": 8.632947099999999
            }
        },
        {
            "name": "Rot-Malsch",
            "coordinates": {
                "lat": 49.2638749,
                "lng": 8.6311244
            }
        },
        {
            "name": "Ubstadt-Weiher",
            "coordinates": {
                "lat": 49.1627831,
                "lng": 8.6290693
            }
        },
        {
            "name": "Heidelberg Hbf",
            "coordinates": {
                "lat": 49.4039382,
                "lng": 8.675814299999999
            }
        },
        {
            "name": "Heidelberg-Kirchheim/Rohrbach",
            "coordinates": {
                "lat": 49.37885850000001,
                "lng": 8.6752621
            }
        },
        {
            "name": "Bruchhausen(b Ettlingen)",
            "coordinates": {
                "lat": 48.9239659,
                "lng": 8.373795700000002
            }
        },
        {
            "name": "St Ilgen-Sandhausen",
            "coordinates": {
                "lat": 49.3375765,
                "lng": 8.6739803
            }
        },
        {
            "name": "Malsch",
            "coordinates": {
                "lat": 48.8844965,
                "lng": 8.3252253
            }
        },
        {
            "name": "Ettlingen West",
            "coordinates": {
                "lat": 48.9505026,
                "lng": 8.381868899999999
            }
        },
        {
            "name": "Orschweier",
            "coordinates": {
                "lat": 48.2756465,
                "lng": 7.7951614
            }
        },
        {
            "name": "Ringsheim",
            "coordinates": {
                "lat": 48.2459643,
                "lng": 7.781612099999999
            }
        },
        {
            "name": "Friesenheim(Baden)",
            "coordinates": {
                "lat": 48.3734167,
                "lng": 7.883617500000001
            }
        },
        {
            "name": "Lahr(Schwarzw)",
            "coordinates": {
                "lat": 48.33915,
                "lng": 7.8781487
            }
        },
        {
            "name": "Rheinweiler",
            "coordinates": {
                "lat": 47.7319201,
                "lng": 7.556973999999999
            }
        },
        {
            "name": "Heitersheim",
            "coordinates": {
                "lat": 47.87331409999999,
                "lng": 7.6575713
            }
        },
        {
            "name": "Bad Bellingen",
            "coordinates": {
                "lat": 47.7319201,
                "lng": 7.556973999999999
            }
        },
        {
            "name": "Haltingen",
            "coordinates": {
                "lat": 47.6138991,
                "lng": 7.6116907
            }
        },
        {
            "name": "Efringen-Kirchen",
            "coordinates": {
                "lat": 47.6561741,
                "lng": 7.562046499999999
            }
        },
        {
            "name": "Buggingen",
            "coordinates": {
                "lat": 47.8481234,
                "lng": 7.6374895
            }
        },
        {
            "name": "Weil am Rhein",
            "coordinates": {
                "lat": 47.5934368,
                "lng": 7.6198121
            }
        },
        {
            "name": "Müllheim(Baden)",
            "coordinates": {
                "lat": 47.8091623,
                "lng": 7.618035300000001
            }
        },
        {
            "name": "Mainz Römisches Theater",
            "coordinates": {
                "lat": 49.9935677,
                "lng": 8.2778033
            }
        },
        {
            "name": "Nackenheim",
            "coordinates": {
                "lat": 49.9179408,
                "lng": 8.339467899999999
            }
        },
        {
            "name": "Basel Bad Bf",
            "coordinates": {
                "lat": 47.5674,
                "lng": 7.607122599999999
            }
        },
        {
            "name": "Basel SBB",
            "coordinates": {
                "lat": 47.54758899999999,
                "lng": 7.589662
            }
        },
        {
            "name": "Bad Wimpfen",
            "coordinates": {
                "lat": 49.22850409999999,
                "lng": 9.157138699999999
            }
        },
        {
            "name": "Neckarsulm",
            "coordinates": {
                "lat": 49.1922581,
                "lng": 9.228708899999999
            }
        },
        {
            "name": "Meckesheim",
            "coordinates": {
                "lat": 49.3207046,
                "lng": 8.814741999999999
            }
        },
        {
            "name": "Ravensburg",
            "coordinates": {
                "lat": 47.7782704,
                "lng": 9.612130299999999
            }
        },
        {
            "name": "Biberach(Riß)",
            "coordinates": {
                "lat": 48.0951473,
                "lng": 9.7901525
            }
        },
        {
            "name": "Bad Rappenau",
            "coordinates": {
                "lat": 49.24016899999999,
                "lng": 9.1020153
            }
        },
        {
            "name": "Aulendorf",
            "coordinates": {
                "lat": 47.9502469,
                "lng": 9.6377896
            }
        },
        {
            "name": "Friedrichshafen Flughafen",
            "coordinates": {
                "lat": 47.6722451,
                "lng": 9.5121906
            }
        },
        {
            "name": "Munderkingen",
            "coordinates": {
                "lat": 48.2397309,
                "lng": 9.647781199999999
            }
        },
        {
            "name": "Rechtenstein",
            "coordinates": {
                "lat": 48.2413204,
                "lng": 9.553795899999999
            }
        },
        {
            "name": "Sigmaringen",
            "coordinates": {
                "lat": 48.0912921,
                "lng": 9.2286121
            }
        },
        {
            "name": "Homburg(Saar)Hbf",
            "coordinates": {
                "lat": 49.3277449,
                "lng": 7.337479299999999
            }
        },
        {
            "name": "Hausen i Tal",
            "coordinates": {
                "lat": 48.08486569999999,
                "lng": 9.0390844
            }
        },
        {
            "name": "Biberach(Baden)",
            "coordinates": {
                "lat": 48.33905379999999,
                "lng": 8.031711099999999
            }
        },
        {
            "name": "Beuron",
            "coordinates": {
                "lat": 48.0504764,
                "lng": 8.9700648
            }
        },
        {
            "name": "Stetten(Donau)",
            "coordinates": {
                "lat": 48.0226265,
                "lng": 8.8725104
            }
        },
        {
            "name": "Hausach",
            "coordinates": {
                "lat": 48.2831877,
                "lng": 8.173237700000001
            }
        },
        {
            "name": "Nendingen(b Tuttlingen)",
            "coordinates": {
                "lat": 48.00957700000001,
                "lng": 8.854047999999999
            }
        },
        {
            "name": "Mühlheim(b Tuttlingen)",
            "coordinates": {
                "lat": 48.029364,
                "lng": 8.8855521
            }
        },
        {
            "name": "Augsburg Haunstetterstraße",
            "coordinates": {
                "lat": 48.3378836,
                "lng": 10.9075861
            }
        },
        {
            "name": "Augsburg-Oberhausen",
            "coordinates": {
                "lat": 48.3896851,
                "lng": 10.8806344
            }
        },
        {
            "name": "Augsburg-Hochzoll",
            "coordinates": {
                "lat": 48.3504969,
                "lng": 10.947344
            }
        },
        {
            "name": "Augsburg Hbf",
            "coordinates": {
                "lat": 48.3659124,
                "lng": 10.8882687
            }
        },
        {
            "name": "Mammendorf",
            "coordinates": {
                "lat": 48.2106139,
                "lng": 11.1674197
            }
        },
        {
            "name": "Mering-St Afra",
            "coordinates": {
                "lat": 48.2769256,
                "lng": 10.9718686
            }
        },
        {
            "name": "Haspelmoor",
            "coordinates": {
                "lat": 48.2243626,
                "lng": 11.0985213
            }
        },
        {
            "name": "Bretten",
            "coordinates": {
                "lat": 49.0362907,
                "lng": 8.7010592
            }
        },
        {
            "name": "Heidenheim-Schnaitheim",
            "coordinates": {
                "lat": 48.7067214,
                "lng": 10.1626547
            }
        },
        {
            "name": "Heilbronn Hbf",
            "coordinates": {
                "lat": 49.1427831,
                "lng": 9.2081125
            }
        },
        {
            "name": "Heidenheim",
            "coordinates": {
                "lat": 48.6893963,
                "lng": 10.1610948
            }
        },
        {
            "name": "Böhringen-Rickelshausen",
            "coordinates": {
                "lat": 47.7521279,
                "lng": 8.9212849
            }
        },
        {
            "name": "Itzelberg",
            "coordinates": {
                "lat": 48.732876,
                "lng": 10.1339921
            }
        },
        {
            "name": "Villingen(Schwarzw)",
            "coordinates": {
                "lat": 48.0594021,
                "lng": 8.4640869
            }
        },
        {
            "name": "Haslach",
            "coordinates": {
                "lat": 48.2773714,
                "lng": 8.090001200000001
            }
        },
        {
            "name": "Singen Industriegebiet",
            "coordinates": {
                "lat": 47.75097479999999,
                "lng": 8.8841763
            }
        },
        {
            "name": "Steinach(Baden)",
            "coordinates": {
                "lat": 48.3029087,
                "lng": 8.0568954
            }
        },
        {
            "name": "Löwental",
            "coordinates": {
                "lat": 47.6639788,
                "lng": 9.4853588
            }
        },
        {
            "name": "Kenzingen",
            "coordinates": {
                "lat": 48.1955155,
                "lng": 7.769684499999999
            }
        },
        {
            "name": "Herrenberg",
            "coordinates": {
                "lat": 48.5950369,
                "lng": 8.8671577
            }
        },
        {
            "name": "Nierstein",
            "coordinates": {
                "lat": 49.869463,
                "lng": 8.3371906
            }
        },
        {
            "name": "Tuttlingen Zentrum",
            "coordinates": {
                "lat": 47.98233159999999,
                "lng": 8.819209599999999
            }
        },
        {
            "name": "Offenburg Kreisschulzentrum",
            "coordinates": {
                "lat": 48.4598131,
                "lng": 7.955245799999998
            }
        },
        {
            "name": "Donaueschingen",
            "coordinates": {
                "lat": 47.95215229999999,
                "lng": 8.4979461
            }
        },
        {
            "name": "Hegne",
            "coordinates": {
                "lat": 47.711339,
                "lng": 9.099084
            }
        },
        {
            "name": "Thiergarten(Hohenz)",
            "coordinates": {
                "lat": 48.086851,
                "lng": 9.098728
            }
        },
        {
            "name": "Westheim(Schwab)",
            "coordinates": {
                "lat": 48.385899,
                "lng": 10.818531
            }
        },
        {
            "name": "Neusäß",
            "coordinates": {
                "lat": 48.3944254,
                "lng": 10.8286573
            }
        },
        {
            "name": "Schemmerberg",
            "coordinates": {
                "lat": 48.190605,
                "lng": 9.8198349
            }
        },
        {
            "name": "Offingen",
            "coordinates": {
                "lat": 48.4822973,
                "lng": 10.3646815
            }
        },
        {
            "name": "Tuttlingen Nord",
            "coordinates": {
                "lat": 47.98233159999999,
                "lng": 8.819209599999999
            }
        },
        {
            "name": "Giengen(Brenz)",
            "coordinates": {
                "lat": 48.6223985,
                "lng": 10.2391536
            }
        },
        {
            "name": "Mindelaltheim",
            "coordinates": {
                "lat": 48.4631544,
                "lng": 10.4111722
            }
        },
        {
            "name": "Thalfingen(b Ulm)",
            "coordinates": {
                "lat": 48.4330585,
                "lng": 10.047754
            }
        },
        {
            "name": "Sigmaringendorf",
            "coordinates": {
                "lat": 48.0679357,
                "lng": 9.2617815
            }
        },
        {
            "name": "Burgau(Schwab)",
            "coordinates": {
                "lat": 48.430206,
                "lng": 10.4107793
            }
        },
        {
            "name": "Günzburg",
            "coordinates": {
                "lat": 48.45284119999999,
                "lng": 10.2775127
            }
        },
        {
            "name": "Herbertingen",
            "coordinates": {
                "lat": 48.0613999,
                "lng": 9.4296685
            }
        },
        {
            "name": "Mengen",
            "coordinates": {
                "lat": 48.0527488,
                "lng": 9.3357055
            }
        },
        {
            "name": "Riedlingen",
            "coordinates": {
                "lat": 48.1596486,
                "lng": 9.471334599999999
            }
        },
        {
            "name": "Triberg",
            "coordinates": {
                "lat": 48.1301564,
                "lng": 8.2324351
            }
        },
        {
            "name": "Gengenbach",
            "coordinates": {
                "lat": 48.4098117,
                "lng": 8.009599699999999
            }
        },
        {
            "name": "Möhringen Rathaus",
            "coordinates": {
                "lat": 48.7261791,
                "lng": 9.1450078
            }
        },
        {
            "name": "Kollmarsreute",
            "coordinates": {
                "lat": 48.1018973,
                "lng": 7.880602
            }
        },
        {
            "name": "Hornberg(Schwarzw)",
            "coordinates": {
                "lat": 48.2099003,
                "lng": 8.2319724
            }
        },
        {
            "name": "Konstanz",
            "coordinates": {
                "lat": 47.6779496,
                "lng": 9.173238399999999
            }
        },
        {
            "name": "Saarbrücken Hbf",
            "coordinates": {
                "lat": 49.242282,
                "lng": 6.988541
            }
        },
        {
            "name": "Konstanz-Fürstenberg",
            "coordinates": {
                "lat": 47.6823923,
                "lng": 9.158545799999999
            }
        },
        {
            "name": "Rentrisch",
            "coordinates": {
                "lat": 49.2648831,
                "lng": 7.0850535
            }
        },
        {
            "name": "Fridingen(b Tuttlingen)",
            "coordinates": {
                "lat": 48.0316522,
                "lng": 8.9362341
            }
        },
        {
            "name": "Möhringen Bahnhof",
            "coordinates": {
                "lat": 48.7306265,
                "lng": 9.1466084
            }
        },
        {
            "name": "Bergenweiler",
            "coordinates": {
                "lat": 48.5767499,
                "lng": 10.272998
            }
        },
        {
            "name": "Konstanz-Wollmatingen",
            "coordinates": {
                "lat": 47.6919546,
                "lng": 9.1476603
            }
        },
        {
            "name": "Niederstotzingen",
            "coordinates": {
                "lat": 48.5409435,
                "lng": 10.2349893
            }
        },
        {
            "name": "Singen Landesgartenschau",
            "coordinates": {
                "lat": 47.7612239,
                "lng": 8.827226399999999
            }
        },
        {
            "name": "Tuttlingen Gänsäcker",
            "coordinates": {
                "lat": 47.9603123,
                "lng": 8.7830659
            }
        },
        {
            "name": "Immendingen",
            "coordinates": {
                "lat": 47.9383007,
                "lng": 8.734745199999999
            }
        },
        {
            "name": "Geisingen",
            "coordinates": {
                "lat": 47.9230362,
                "lng": 8.6489943
            }
        },
        {
            "name": "Rammingen(Württ)",
            "coordinates": {
                "lat": 48.5181045,
                "lng": 10.1723618
            }
        },
        {
            "name": "Langenau(Württ)",
            "coordinates": {
                "lat": 48.49727619999999,
                "lng": 10.1224468
            }
        },
        {
            "name": "Sontheim-Brenz",
            "coordinates": {
                "lat": 48.5568355,
                "lng": 10.2850447
            }
        },
        {
            "name": "Erbach(Württ)",
            "coordinates": {
                "lat": 48.3273294,
                "lng": 9.8926673
            }
        },
        {
            "name": "Warthausen",
            "coordinates": {
                "lat": 48.1275518,
                "lng": 9.7933255
            }
        },
        {
            "name": "Ulm Ost",
            "coordinates": {
                "lat": 48.4070717,
                "lng": 9.9946208
            }
        },
        {
            "name": "Unterelchingen",
            "coordinates": {
                "lat": 48.4546579,
                "lng": 10.1054002
            }
        },
        {
            "name": "Kehlen",
            "coordinates": {
                "lat": 47.6808767,
                "lng": 9.5511128
            }
        },
        {
            "name": "Laupheim West",
            "coordinates": {
                "lat": 48.2303503,
                "lng": 9.8829174
            }
        },
        {
            "name": "Ulm-Donautal",
            "coordinates": {
                "lat": 48.36096,
                "lng": 9.946508
            }
        },
        {
            "name": "Meckenbeuren",
            "coordinates": {
                "lat": 47.697371,
                "lng": 9.5629717
            }
        },
        {
            "name": "Eberbach",
            "coordinates": {
                "lat": 49.4694813,
                "lng": 8.9898436
            }
        },
        {
            "name": "Leipheim",
            "coordinates": {
                "lat": 48.4495038,
                "lng": 10.2196324
            }
        },
        {
            "name": "Mochenwangen",
            "coordinates": {
                "lat": 47.8762553,
                "lng": 9.636431199999999
            }
        },
        {
            "name": "Oberzell",
            "coordinates": {
                "lat": 47.7544656,
                "lng": 9.5742028
            }
        },
        {
            "name": "Bad Schussenried",
            "coordinates": {
                "lat": 48.0048324,
                "lng": 9.656507300000001
            }
        },
        {
            "name": "Biberach(Riß) Süd",
            "coordinates": {
                "lat": 48.0873316,
                "lng": 9.8029263
            }
        },
        {
            "name": "Weißenau",
            "coordinates": {
                "lat": 47.766782,
                "lng": 9.598696
            }
        },
        {
            "name": "Nersingen",
            "coordinates": {
                "lat": 48.4277615,
                "lng": 10.1223891
            }
        },
        {
            "name": "Jettingen",
            "coordinates": {
                "lat": 48.398993,
                "lng": 10.445333
            }
        },
        {
            "name": "Mosbach-Neckarelz",
            "coordinates": {
                "lat": 49.33931399999999,
                "lng": 9.1215615
            }
        },
        {
            "name": "Diedorf(Schwab)",
            "coordinates": {
                "lat": 48.3552771,
                "lng": 10.7840067
            }
        },
        {
            "name": "Gessertshausen",
            "coordinates": {
                "lat": 48.3296906,
                "lng": 10.7336105
            }
        },
        {
            "name": "Freihalden",
            "coordinates": {
                "lat": 48.3842044,
                "lng": 10.4949173
            }
        },
        {
            "name": "Mannheim-Friedrichsfeld",
            "coordinates": {
                "lat": 49.4404951,
                "lng": 8.5758288
            }
        },
        {
            "name": "Teningen-Mundingen",
            "coordinates": {
                "lat": 48.1351284,
                "lng": 7.8330412
            }
        },
        {
            "name": "Limbach(b Homburg,Saar)",
            "coordinates": {
                "lat": 49.312148,
                "lng": 7.279126999999999
            }
        },
        {
            "name": "Kissing",
            "coordinates": {
                "lat": 48.3027069,
                "lng": 10.972609
            }
        },
        {
            "name": "Mühlhausen(b Engen)",
            "coordinates": {
                "lat": 47.8136231,
                "lng": 8.8040827
            }
        },
        {
            "name": "Geislingen(Steige)",
            "coordinates": {
                "lat": 48.62151619999999,
                "lng": 9.8294482
            }
        },
        {
            "name": "Kuchen",
            "coordinates": {
                "lat": 48.6390543,
                "lng": 9.7992577
            }
        },
        {
            "name": "Lonsee",
            "coordinates": {
                "lat": 48.5405915,
                "lng": 9.9226157
            }
        },
        {
            "name": "Hauptstuhl",
            "coordinates": {
                "lat": 49.4003076,
                "lng": 7.489745800000001
            }
        },
        {
            "name": "Immendingen Mitte",
            "coordinates": {
                "lat": 47.9383007,
                "lng": 8.734745199999999
            }
        },
        {
            "name": "Geislingen(Steige)West",
            "coordinates": {
                "lat": 48.62151619999999,
                "lng": 9.8294482
            }
        },
        {
            "name": "Amstetten(Württ)",
            "coordinates": {
                "lat": 48.5761698,
                "lng": 9.8740987
            }
        },
        {
            "name": "Beimerstetten",
            "coordinates": {
                "lat": 48.4841775,
                "lng": 9.9830335
            }
        },
        {
            "name": "Westerstetten",
            "coordinates": {
                "lat": 48.5203141,
                "lng": 9.9570935
            }
        },
        {
            "name": "Memmingen",
            "coordinates": {
                "lat": 47.9837999,
                "lng": 10.1801883
            }
        },
        {
            "name": "Vöhringen",
            "coordinates": {
                "lat": 48.2778326,
                "lng": 10.0779997
            }
        },
        {
            "name": "Bellenberg",
            "coordinates": {
                "lat": 48.2559754,
                "lng": 10.0895208
            }
        },
        {
            "name": "Salach",
            "coordinates": {
                "lat": 48.6913065,
                "lng": 9.7381237
            }
        },
        {
            "name": "Göppingen",
            "coordinates": {
                "lat": 48.7054382,
                "lng": 9.6512491
            }
        },
        {
            "name": "Gingen(Fils)",
            "coordinates": {
                "lat": 48.6588845,
                "lng": 9.7821334
            }
        },
        {
            "name": "Kellmünz",
            "coordinates": {
                "lat": 48.1212664,
                "lng": 10.1277803
            }
        },
        {
            "name": "Illertissen",
            "coordinates": {
                "lat": 48.2253313,
                "lng": 10.1012701
            }
        },
        {
            "name": "Altenstadt(Iller)",
            "coordinates": {
                "lat": 48.1592017,
                "lng": 10.1107464
            }
        },
        {
            "name": "Faurndau",
            "coordinates": {
                "lat": 48.7095996,
                "lng": 9.6167435
            }
        },
        {
            "name": "Uhingen",
            "coordinates": {
                "lat": 48.7112849,
                "lng": 9.586083799999999
            }
        },
        {
            "name": "Kempten(Allgäu)Ost",
            "coordinates": {
                "lat": 47.7285699,
                "lng": 10.3157835
            }
        },
        {
            "name": "Dietmannsried",
            "coordinates": {
                "lat": 47.8082833,
                "lng": 10.2892511
            }
        },
        {
            "name": "Bad Grönenbach",
            "coordinates": {
                "lat": 47.87484269999999,
                "lng": 10.221465
            }
        },
        {
            "name": "Kempten(Allgäu)Hbf",
            "coordinates": {
                "lat": 47.7120513,
                "lng": 10.3168042
            }
        },
        {
            "name": "Mettenheim",
            "coordinates": {
                "lat": 49.739890,
                "lng": 8.334181
            }
        },
        {
            "name": "Landstuhl",
            "coordinates": {
                "lat": 49.41414640000001,
                "lng": 7.570905199999999
            }
        },
        {
            "name": "Vogelweh",
            "coordinates": {
                "lat": 49.43496510000001,
                "lng": 7.704711499999999
            }
        },
        {
            "name": "Kindsbach",
            "coordinates": {
                "lat": 49.4196013,
                "lng": 7.621620399999999
            }
        },
        {
            "name": "Einsiedlerhof",
            "coordinates": {
                "lat": 49.4385181,
                "lng": 7.6611104
            }
        },
        {
            "name": "Frankenstein(Pfalz)",
            "coordinates": {
                "lat": 49.4384427,
                "lng": 7.978805700000001
            }
        },
        {
            "name": "Kaiserslautern Hbf",
            "coordinates": {
                "lat": 49.4362157,
                "lng": 7.7685169
            }
        },
        {
            "name": "Haßloch(Pfalz)",
            "coordinates": {
                "lat": 49.3610149,
                "lng": 8.2578059
            }
        },
        {
            "name": "Neustadt-Böbig",
            "coordinates": {
                "lat": 49.3535432,
                "lng": 8.1573876
            }
        },
        {
            "name": "Ludwigshafen-Rheingönheim",
            "coordinates": {
                "lat": 49.4467282,
                "lng": 8.4205613
            }
        },
        {
            "name": "Ludwigshafen-Mundenheim",
            "coordinates": {
                "lat": 49.4719156,
                "lng": 8.424614
            }
        },
        {
            "name": "Hochspeyer",
            "coordinates": {
                "lat": 49.442778,
                "lng": 7.896667
            }
        },
        {
            "name": "Weißenhorn",
            "coordinates": {
                "lat": 48.3037462,
                "lng": 10.1561201
            }
        },
        {
            "name": "Steinsfurt",
            "coordinates": {
                "lat": 49.2390896,
                "lng": 8.9100705
            }
        },
        {
            "name": "Finningerstraße",
            "coordinates": {
                "lat": 48.390023,
                "lng": 10.026207
            }
        },
        {
            "name": "Bad Friedrichshall Hbf",
            "coordinates": {
                "lat": 49.23157880000001,
                "lng": 9.200556299999999
            }
        },
        {
            "name": "Wullenstetten",
            "coordinates": {
                "lat": 48.3189483,
                "lng": 10.0729102
            }
        },
        {
            "name": "Gerlenhofen",
            "coordinates": {
                "lat": 48.34747609999999,
                "lng": 10.0347727
            }
        },
        {
            "name": "Sinsheim(Elsenz) Hbf",
            "coordinates": {
                "lat": 49.2501557,
                "lng": 8.8755855
            }
        },
        {
            "name": "Neu-Ulm",
            "coordinates": {
                "lat": 48.3906042,
                "lng": 10.0060398
            }
        },
        {
            "name": "Senden",
            "coordinates": {
                "lat": 48.3255759,
                "lng": 10.04927
            }
        },
        {
            "name": "München Hbf",
            "coordinates": {
                "lat": 48.1402669,
                "lng": 11.559998
            }
        },
        {
            "name": "München-Pasing",
            "coordinates": {
                "lat": 48.140493,
                "lng": 11.461586
            }
        },
        {
            "name": "Reichenbach(Fils)",
            "coordinates": {
                "lat": 48.7115689,
                "lng": 9.4630115
            }
        },
        {
            "name": "Althegnenberg",
            "coordinates": {
                "lat": 48.2357362,
                "lng": 11.0665861
            }
        },
        {
            "name": "Ebersbach(Fils)",
            "coordinates": {
                "lat": 48.7178492,
                "lng": 9.5283591
            }
        },
        {
            "name": "Mering",
            "coordinates": {
                "lat": 48.2653605,
                "lng": 10.9861466
            }
        },
        {
            "name": "Karlsruhe-Mühlburg",
            "coordinates": {
                "lat": 49.01580310000001,
                "lng": 8.345768399999999
            }
        },
        {
            "name": "Urspring",
            "coordinates": {
                "lat": 48.382369,
                "lng": 9.7198215
            }
        },
        {
            "name": "Denzlingen",
            "coordinates": {
                "lat": 48.0690429,
                "lng": 7.8890649
            }
        },
        {
            "name": "Freiburg-Herdern",
            "coordinates": {
                "lat": 48.0068779,
                "lng": 7.8748446
            }
        },
        {
            "name": "Freiburg(Breisgau) Hbf",
            "coordinates": {
                "lat": 47.997648,
                "lng": 7.842163599999998
            }
        },
        {
            "name": "Gundelfingen(Breisgau)",
            "coordinates": {
                "lat": 48.0424069,
                "lng": 7.866946599999999
            }
        },
        {
            "name": "Karlsruhe-Hagsfeld",
            "coordinates": {
                "lat": 49.0297476,
                "lng": 8.4613212
            }
        },
        {
            "name": "Karlsruhe-Knielingen",
            "coordinates": {
                "lat": 49.0388727,
                "lng": 8.336478999999999
            }
        },
        {
            "name": "Winden(Pfalz)",
            "coordinates": {
                "lat": 49.0984007,
                "lng": 8.1185103
            }
        },
        {
            "name": "Ebringen",
            "coordinates": {
                "lat": 47.9561612,
                "lng": 7.776980200000001
            }
        },
        {
            "name": "Emmendingen",
            "coordinates": {
                "lat": 48.1170918,
                "lng": 7.853904699999998
            }
        },
        {
            "name": "Maximiliansau West",
            "coordinates": {
                "lat": 49.0389089,
                "lng": 8.2918992
            }
        },
        {
            "name": "Freiburg-Zähringen",
            "coordinates": {
                "lat": 48.02237909999999,
                "lng": 7.866911500000001
            }
        },
        {
            "name": "Freiburg-St Georgen",
            "coordinates": {
                "lat": 47.9806275,
                "lng": 7.7850641
            }
        },
        {
            "name": "Wörth(Rhein) Mozartstraße",
            "coordinates": {
                "lat": 49.0541111,
                "lng": 8.2506667
            }
        },
        {
            "name": "Wörth(Rhein)",
            "coordinates": {
                "lat": 49.0514423,
                "lng": 8.257337999999999
            }
        },
        {
            "name": "Bad Krozingen",
            "coordinates": {
                "lat": 47.9160569,
                "lng": 7.7003244
            }
        },
        {
            "name": "Kandel",
            "coordinates": {
                "lat": 49.083333,
                "lng": 8.2
            }
        },
        {
            "name": "Tamm(Württ)",
            "coordinates": {
                "lat": 48.9234528,
                "lng": 9.1298642
            }
        },
        {
            "name": "Weil der Stadt",
            "coordinates": {
                "lat": 48.7535937,
                "lng": 8.8727422
            }
        },
        {
            "name": "Asperg",
            "coordinates": {
                "lat": 48.9041527,
                "lng": 9.1400293
            }
        },
        {
            "name": "Neidenfels",
            "coordinates": {
                "lat": 49.3878976,
                "lng": 8.0478226
            }
        },
        {
            "name": "Limburgerhof",
            "coordinates": {
                "lat": 49.4207609,
                "lng": 8.3900307
            }
        },
        {
            "name": "Stuttgart Stadtmitte",
            "coordinates": {
                "lat": 48.7791249,
                "lng": 9.1800904
            }
        },
        {
            "name": "Weidenthal",
            "coordinates": {
                "lat": 49.4218294,
                "lng": 7.9906187
            }
        },
        {
            "name": "Stuttgart-Feuerbach",
            "coordinates": {
                "lat": 48.81160089999999,
                "lng": 9.1589461
            }
        },
        {
            "name": "Kornwestheim Pbf",
            "coordinates": {
                "lat": 48.8622275,
                "lng": 9.179487199999999
            }
        },
        {
            "name": "Bietigheim-Bissingen",
            "coordinates": {
                "lat": 48.9471605,
                "lng": 9.1305037
            }
        },
        {
            "name": "Lambrecht(Pfalz)",
            "coordinates": {
                "lat": 49.3727201,
                "lng": 8.0720045
            }
        },
        {
            "name": "Stuttgart Nord",
            "coordinates": {
                "lat": 48.7927231,
                "lng": 9.1684625
            }
        },
        {
            "name": "Höfingen",
            "coordinates": {
                "lat": 48.81679949999999,
                "lng": 9.0176951
            }
        },
        {
            "name": "Renningen",
            "coordinates": {
                "lat": 48.7716629,
                "lng": 8.9343956
            }
        },
        {
            "name": "Ditzingen",
            "coordinates": {
                "lat": 48.8264662,
                "lng": 9.067556399999999
            }
        },
        {
            "name": "Rutesheim",
            "coordinates": {
                "lat": 48.80815,
                "lng": 8.9455036
            }
        },
        {
            "name": "Leonberg",
            "coordinates": {
                "lat": 48.7960447,
                "lng": 9.0095706
            }
        },
        {
            "name": "St Ingbert",
            "coordinates": {
                "lat": 49.2774456,
                "lng": 7.1118995
            }
        },
        {
            "name": "Stuttgart Hbf",
            "coordinates": {
                "lat": 48.783206,
                "lng": 9.182288999999999
            }
        },
        {
            "name": "Riegel am Kaiserstuhl Ort",
            "coordinates": {
                "lat": 48.15590719999999,
                "lng": 7.747446299999999
            }
        },
        {
            "name": "Köndringen",
            "coordinates": {
                "lat": 48.1400951,
                "lng": 7.8060243
            }
        },
        {
            "name": "Rohrbach(Saar)",
            "coordinates": {
                "lat": 49.2835131,
                "lng": 7.1618605
            }
        },
        {
            "name": "Witzighausen",
            "coordinates": {
                "lat": 48.3140259,
                "lng": 10.1001439
            }
        },
        {
            "name": "Weißenhorn-Eschach",
            "coordinates": {
                "lat": 48.300999,
                "lng": 10.135093
            }
        },
        {
            "name": "Böhl-Iggelheim",
            "coordinates": {
                "lat": 49.3656101,
                "lng": 8.308653999999999
            }
        },
        {
            "name": "Stuttgart Schwabstr.",
            "coordinates": {
                "lat": 48.7741109,
                "lng": 9.156070099999999
            }
        },
        {
            "name": "Scheidt(Saar)",
            "coordinates": {
                "lat": 49.2459115,
                "lng": 7.0668599
            }
        },
        {
            "name": "Schafbrücke",
            "coordinates": {
                "lat": 49.2273948,
                "lng": 7.0575285
            }
        },
        {
            "name": "Stuttgart Feuersee",
            "coordinates": {
                "lat": 48.7740801,
                "lng": 9.163998699999999
            }
        },
        {
            "name": "Malmsheim",
            "coordinates": {
                "lat": 48.77482089999999,
                "lng": 8.903683
            }
        },
        {
            "name": "Bruchmühlbach-Miesau",
            "coordinates": {
                "lat": 49.3839906,
                "lng": 7.4471353
            }
        },
        {
            "name": "Saarbrücken Ost",
            "coordinates": {
                "lat": 49.2305293,
                "lng": 7.0186693
            }
        },
        {
            "name": "Oppenheim",
            "coordinates": {
                "lat": 49.8519223,
                "lng": 8.3602742
            }
        },
        {
            "name": "Ludwigshafen-Oggersheim",
            "coordinates": {
                "lat": 49.4910406,
                "lng": 8.3679951
            }
        },
        {
            "name": "Mainz-Laubenheim",
            "coordinates": {
                "lat": 49.960694,
                "lng": 8.3132048
            }
        },
        {
            "name": "Bobenheim",
            "coordinates": {
                "lat": 49.5811581,
                "lng": 8.3589707
            }
        },
        {
            "name": "Ludwigshafen(Rhein) Mitte",
            "coordinates": {
                "lat": 49.4790628,
                "lng": 8.4525443
            }
        },
        {
            "name": "Friedrichshafen Hafen",
            "coordinates": {
                "lat": 47.65119749999999,
                "lng": 9.4827747
            }
        },
        {
            "name": "Fellbach",
            "coordinates": {
                "lat": 48.8215653,
                "lng": 9.2702944
            }
        },
        {
            "name": "Nellmersbach",
            "coordinates": {
                "lat": 48.9017546,
                "lng": 9.416255
            }
        },
        {
            "name": "Neustadt-Hohenacker",
            "coordinates": {
                "lat": 48.8646111,
                "lng": 9.316279699999999
            }
        },
        {
            "name": "Waiblingen",
            "coordinates": {
                "lat": 48.8293519,
                "lng": 9.318573899999999
            }
        },
        {
            "name": "Kutzenhausen",
            "coordinates": {
                "lat": 48.3415555,
                "lng": 10.6947946
            }
        },
        {
            "name": "Schwaikheim",
            "coordinates": {
                "lat": 48.8732234,
                "lng": 9.3526778
            }
        },
        {
            "name": "Dinkelscherben",
            "coordinates": {
                "lat": 48.3476083,
                "lng": 10.589789
            }
        },
        {
            "name": "Stuttgart Nürnberger Str.",
            "coordinates": {
                "lat": 48.8082412,
                "lng": 9.2425397
            }
        },
        {
            "name": "Weingarten Berg",
            "coordinates": {
                "lat": 47.8096019,
                "lng": 9.637983199999999
            }
        },
        {
            "name": "Niederbiegen",
            "coordinates": {
                "lat": 47.8282684,
                "lng": 9.623874299999999
            }
        },
        {
            "name": "Heidenheim Voithwerk",
            "coordinates": {
                "lat": 48.669482,
                "lng": 10.156077
            }
        },
        {
            "name": "Stuttgart Universität",
            "coordinates": {
                "lat": 48.7815142,
                "lng": 9.1735818
            }
        },
        {
            "name": "Stuttgart-Bad Cannstatt",
            "coordinates": {
                "lat": 48.8084576,
                "lng": 9.225035499999999
            }
        },
        {
            "name": "Schorndorf",
            "coordinates": {
                "lat": 48.8015423,
                "lng": 9.52962
            }
        },
        {
            "name": "Stuttgart-Sommerrain",
            "coordinates": {
                "lat": 48.8181818,
                "lng": 9.245925699999999
            }
        },
        {
            "name": "Weiler(Rems)",
            "coordinates": {
                "lat": 48.7974539,
                "lng": 9.501669
            }
        },
        {
            "name": "Favoritepark",
            "coordinates": {
                "lat": 48.9090479,
                "lng": 9.1886957
            }
        },
        {
            "name": "Benningen(Neckar)",
            "coordinates": {
                "lat": 48.94329760000001,
                "lng": 9.239925699999999
            }
        },
        {
            "name": "Burgstall(Murr)",
            "coordinates": {
                "lat": 48.9271991,
                "lng": 9.3723872
            }
        },
        {
            "name": "Kirchberg(Murr)",
            "coordinates": {
                "lat": 48.9425755,
                "lng": 9.3417915
            }
        },
        {
            "name": "Echterdingen",
            "coordinates": {
                "lat": 48.6980072,
                "lng": 9.140742699999999
            }
        },
        {
            "name": "Leinfelden",
            "coordinates": {
                "lat": 48.6980072,
                "lng": 9.140742699999999
            }
        },
        {
            "name": "Stuttgart-Rohr",
            "coordinates": {
                "lat": 48.7199459,
                "lng": 9.0967646
            }
        },
        {
            "name": "Stuttgart-Österfeld",
            "coordinates": {
                "lat": 48.7373334,
                "lng": 9.1167963
            }
        },
        {
            "name": "Stuttgart Flughafen/Messe",
            "coordinates": {
                "lat": 48.6909947,
                "lng": 9.1924064
            }
        },
        {
            "name": "Stuttgart-Vaihingen",
            "coordinates": {
                "lat": 48.7303646,
                "lng": 9.107941799999999
            }
        },
        {
            "name": "Marbach(Neckar)",
            "coordinates": {
                "lat": 48.939615,
                "lng": 9.2645971
            }
        },
        {
            "name": "Oberaichen",
            "coordinates": {
                "lat": 48.7060538,
                "lng": 9.126358699999999
            }
        },
        {
            "name": "Eislingen(Fils)",
            "coordinates": {
                "lat": 48.7023247,
                "lng": 9.7120357
            }
        },
        {
            "name": "Stetten-Beinstein",
            "coordinates": {
                "lat": 48.81193409999999,
                "lng": 9.3519999
            }
        },
        {
            "name": "Rommelshausen",
            "coordinates": {
                "lat": 48.81401899999999,
                "lng": 9.3182543
            }
        },
        {
            "name": "Magstadt",
            "coordinates": {
                "lat": 48.7425459,
                "lng": 8.966557500000002
            }
        },
        {
            "name": "Gärtringen",
            "coordinates": {
                "lat": 48.641586,
                "lng": 8.9029165
            }
        },
        {
            "name": "Sindelfingen",
            "coordinates": {
                "lat": 48.7074558,
                "lng": 9.0044053
            }
        },
        {
            "name": "Sachsenheim",
            "coordinates": {
                "lat": 48.9603579,
                "lng": 9.064320799999999
            }
        },
        {
            "name": "Sersheim",
            "coordinates": {
                "lat": 48.9588468,
                "lng": 9.012917
            }
        },
        {
            "name": "Vaihingen(Enz)",
            "coordinates": {
                "lat": 48.9334357,
                "lng": 8.961208000000001
            }
        },
        {
            "name": "Mühlacker",
            "coordinates": {
                "lat": 48.948938,
                "lng": 8.8524245
            }
        },
        {
            "name": "Karlsruhe-Durlach",
            "coordinates": {
                "lat": 48.997819,
                "lng": 8.4771923
            }
        },
        {
            "name": "Pforzheim Hbf",
            "coordinates": {
                "lat": 48.893722,
                "lng": 8.7030321
            }
        },
        {
            "name": "Illingen(Württ)",
            "coordinates": {
                "lat": 48.9562888,
                "lng": 8.9256999
            }
        },
        {
            "name": "Maichingen Nord",
            "coordinates": {
                "lat": 48.722079,
                "lng": 8.965710999999999
            }
        },
        {
            "name": "Renningen Süd",
            "coordinates": {
                "lat": 48.7716629,
                "lng": 8.9343956
            }
        },
        {
            "name": "Maichingen",
            "coordinates": {
                "lat": 48.722079,
                "lng": 8.965710999999999
            }
        },
        {
            "name": "Sulz(Neckar)",
            "coordinates": {
                "lat": 48.3537106,
                "lng": 8.6344165
            }
        },
        {
            "name": "Engen",
            "coordinates": {
                "lat": 47.854144,
                "lng": 8.7737404
            }
        },
        {
            "name": "Eutingen(Baden)",
            "coordinates": {
                "lat": 48.909911,
                "lng": 8.743622
            }
        },
        {
            "name": "Überlingen",
            "coordinates": {
                "lat": 47.7661746,
                "lng": 9.1702772
            }
        },
        {
            "name": "Mühlacker Rößlesweg",
            "coordinates": {
                "lat": 48.9564078,
                "lng": 8.8589948
            }
        },
        {
            "name": "Wilferdingen-Singen",
            "coordinates": {
                "lat": 48.957659,
                "lng": 8.566633999999999
            }
        },
        {
            "name": "Eutingen im Gäu",
            "coordinates": {
                "lat": 48.4778509,
                "lng": 8.748092399999999
            }
        },
        {
            "name": "Enzberg",
            "coordinates": {
                "lat": 48.9347156,
                "lng": 8.7988635
            }
        },
        {
            "name": "Altbach",
            "coordinates": {
                "lat": 48.72227969999999,
                "lng": 9.380059
            }
        },
        {
            "name": "Allensbach",
            "coordinates": {
                "lat": 47.7171871,
                "lng": 9.0663456
            }
        },
        {
            "name": "Wendlingen(Neckar)",
            "coordinates": {
                "lat": 48.671757,
                "lng": 9.3827676
            }
        },
        {
            "name": "Schifferstadt",
            "coordinates": {
                "lat": 49.3828647,
                "lng": 8.376704799999999
            }
        },
        {
            "name": "Markelfingen",
            "coordinates": {
                "lat": 47.7432519,
                "lng": 9.004355499999999
            }
        },
        {
            "name": "St Georgen(Schwarzw)",
            "coordinates": {
                "lat": 48.1289227,
                "lng": 8.334847600000002
            }
        },
        {
            "name": "Hermaringen",
            "coordinates": {
                "lat": 48.59522459999999,
                "lng": 10.2572841
            }
        },
        {
            "name": "Königsbronn",
            "coordinates": {
                "lat": 48.74280479999999,
                "lng": 10.1123751
            }
        },
        {
            "name": "Reichenau(Baden)",
            "coordinates": {
                "lat": 47.6980283,
                "lng": 9.0608835
            }
        },
        {
            "name": "Oberkochen",
            "coordinates": {
                "lat": 48.78526,
                "lng": 10.1046879
            }
        },
        {
            "name": "Aldingen(b Spaichingen)",
            "coordinates": {
                "lat": 48.0956781,
                "lng": 8.7127576
            }
        },
        {
            "name": "Laupheim Stadt",
            "coordinates": {
                "lat": 48.2303503,
                "lng": 9.8829174
            }
        },
        {
            "name": "Oberelchingen",
            "coordinates": {
                "lat": 48.4575946,
                "lng": 10.104474
            }
        },
        {
            "name": "Kirchheim(Teck)",
            "coordinates": {
                "lat": 48.6471033,
                "lng": 9.4519635
            }
        },
        {
            "name": "Graben-Neudorf",
            "coordinates": {
                "lat": 49.1605184,
                "lng": 8.484947199999999
            }
        },
        {
            "name": "Worms Hbf",
            "coordinates": {
                "lat": 49.6347525,
                "lng": 8.3568461
            }
        },
        {
            "name": "Singen(Hohentwiel)",
            "coordinates": {
                "lat": 47.7670971,
                "lng": 8.8722387
            }
        },
        {
            "name": "Plochingen",
            "coordinates": {
                "lat": 48.7131896,
                "lng": 9.4197264
            }
        },
        {
            "name": "Speyer Hbf",
            "coordinates": {
                "lat": 49.3241174,
                "lng": 8.4283285
            }
        },
        {
            "name": "Kirchheim(Teck)-Ötlingen",
            "coordinates": {
                "lat": 48.6577703,
                "lng": 9.4162159
            }
        },
        {
            "name": "Esslingen-Mettingen",
            "coordinates": {
                "lat": 48.7484393,
                "lng": 9.2763838
            }
        },
        {
            "name": "Esslingen-Zell",
            "coordinates": {
                "lat": 48.7264734,
                "lng": 9.3602951
            }
        },
        {
            "name": "Oberesslingen",
            "coordinates": {
                "lat": 48.7296066,
                "lng": 9.331345299999999
            }
        },
        {
            "name": "Wernau(Neckar)",
            "coordinates": {
                "lat": 48.6914602,
                "lng": 9.417933999999999
            }
        },
        {
            "name": "Esslingen(Neckar)",
            "coordinates": {
                "lat": 48.7433425,
                "lng": 9.320112199999999
            }
        },
        {
            "name": "Oftersheim",
            "coordinates": {
                "lat": 49.3702809,
                "lng": 8.5838662
            }
        },
        {
            "name": "Schwetzingen",
            "coordinates": {
                "lat": 49.3852193,
                "lng": 8.572244399999999
            }
        },
        {
            "name": "Wiesental",
            "coordinates": {
                "lat": 49.225989,
                "lng": 8.502577
            }
        },
        {
            "name": "Waghäusel",
            "coordinates": {
                "lat": 49.2495336,
                "lng": 8.5154348
            }
        },
        {
            "name": "Radolfzell",
            "coordinates": {
                "lat": 47.745237,
                "lng": 8.9669098
            }
        },
        {
            "name": "Bad Säckingen",
            "coordinates": {
                "lat": 47.5562231,
                "lng": 7.943587699999999
            }
        },
        {
            "name": "Rheinfelden(Baden)",
            "coordinates": {
                "lat": 47.5896468,
                "lng": 7.768778999999999
            }
        },
        {
            "name": "Hockenheim",
            "coordinates": {
                "lat": 49.31955199999999,
                "lng": 8.5498581
            }
        },
        {
            "name": "Friedrichstal(Baden)",
            "coordinates": {
                "lat": 49.10459059999999,
                "lng": 8.4762984
            }
        },
        {
            "name": "Biebesheim",
            "coordinates": {
                "lat": 49.7792822,
                "lng": 8.4743923
            }
        },
        {
            "name": "Mannheim Hbf",
            "coordinates": {
                "lat": 49.4796668,
                "lng": 8.4698038
            }
        },
        {
            "name": "Gernsheim",
            "coordinates": {
                "lat": 49.7574082,
                "lng": 8.4885231
            }
        },
        {
            "name": "Lampertheim",
            "coordinates": {
                "lat": 49.59972670000001,
                "lng": 8.466599
            }
        },
        {
            "name": "Mannheim-Luzenberg",
            "coordinates": {
                "lat": 49.516564,
                "lng": 8.4797668
            }
        },
        {
            "name": "Herrlingen",
            "coordinates": {
                "lat": 48.4188443,
                "lng": 9.9077112
            }
        },
        {
            "name": "Mannheim-Waldhof",
            "coordinates": {
                "lat": 49.5206848,
                "lng": 8.4837651
            }
        },
        {
            "name": "Ehingen(Donau)",
            "coordinates": {
                "lat": 48.2928997,
                "lng": 9.6612347
            }
        },
        {
            "name": "Friedrichshafen Stadt",
            "coordinates": {
                "lat": 47.6617648,
                "lng": 9.4800113
            }
        },
        {
            "name": "Schelklingen",
            "coordinates": {
                "lat": 48.3735168,
                "lng": 9.736396
            }
        },
        {
            "name": "Frankfurt(Main)Hbf",
            "coordinates": {
                "lat": 50.10652899999999,
                "lng": 8.6621618
            }
        },
        {
            "name": "Groß Gerau-Dornberg",
            "coordinates": {
                "lat": 49.9119265,
                "lng": 8.4951867
            }
        },
        {
            "name": "Ulm-Söflingen",
            "coordinates": {
                "lat": 48.39485,
                "lng": 9.95501
            }
        },
        {
            "name": "Riedstadt-Goddelau",
            "coordinates": {
                "lat": 49.833498,
                "lng": 8.4937
            }
        },
        {
            "name": "Mörfelden",
            "coordinates": {
                "lat": 49.980722,
                "lng": 8.561487
            }
        },
        {
            "name": "Mannheim Handelshafen",
            "coordinates": {
                "lat": 49.4918837,
                "lng": 8.453858799999999
            }
        },
        {
            "name": "Edenkoben",
            "coordinates": {
                "lat": 49.283333,
                "lng": 8.133333
            }
        },
        {
            "name": "Bobstadt",
            "coordinates": {
                "lat": 49.6632322,
                "lng": 8.4471776
            }
        },
        {
            "name": "Mannheim-Neckarstadt",
            "coordinates": {
                "lat": 49.5022134,
                "lng": 8.4651956
            }
        },
        {
            "name": "Landau(Pfalz)Hbf",
            "coordinates": {
                "lat": 49.1980838,
                "lng": 8.1258673
            }
        },
        {
            "name": "Neustadt(Weinstr)Hbf",
            "coordinates": {
                "lat": 49.3498969,
                "lng": 8.1403561
            }
        },
        {
            "name": "Bodenheim",
            "coordinates": {
                "lat": 49.9292948,
                "lng": 8.312674
            }
        },
        {
            "name": "Stockstadt(Rhein)",
            "coordinates": {
                "lat": 49.8074541,
                "lng": 8.4686308
            }
        },
        {
            "name": "Zeppelinheim",
            "coordinates": {
                "lat": 50.0350671,
                "lng": 8.612769799999999
            }
        },
        {
            "name": "Riedstadt-Wolfskehlen",
            "coordinates": {
                "lat": 49.8550452,
                "lng": 8.4985932
            }
        },
        {
            "name": "Frankfurt am Main - Stadion",
            "coordinates": {
                "lat": 50.0685807,
                "lng": 8.645472
            }
        },
        {
            "name": "Weingarten(Baden)",
            "coordinates": {
                "lat": 49.0472729,
                "lng": 8.5273525
            }
        },
        {
            "name": "Frankfurt-Niederrad",
            "coordinates": {
                "lat": 50.083698,
                "lng": 8.6443596
            }
        },
        {
            "name": "Groß Gerau-Dornheim",
            "coordinates": {
                "lat": 49.8766366,
                "lng": 8.485474800000002
            }
        },
        {
            "name": "Walldorf(Hess)",
            "coordinates": {
                "lat": 50.00322329999999,
                "lng": 8.5716643
            }
        },
        {
            "name": "Schliengen",
            "coordinates": {
                "lat": 47.7558933,
                "lng": 7.5771823
            }
        },
        {
            "name": "Kleinkems",
            "coordinates": {
                "lat": 47.688129,
                "lng": 7.523394899999999
            }
        },
        {
            "name": "Istein",
            "coordinates": {
                "lat": 47.662826,
                "lng": 7.536899
            }
        },
        {
            "name": "Alsheim",
            "coordinates": {
                "lat": 49.7656803,
                "lng": 8.3402947
            }
        },
        {
            "name": "Osthofen",
            "coordinates": {
                "lat": 49.7033893,
                "lng": 8.3238601
            }
        },
        {
            "name": "Kirkel",
            "coordinates": {
                "lat": 49.2848014,
                "lng": 7.231406499999999
            }
        },
        {
            "name": "Guntersblum",
            "coordinates": {
                "lat": 49.797222,
                "lng": 8.345556
            }
        },
        {
            "name": "Unterkochen",
            "coordinates": {
                "lat": 48.8145333,
                "lng": 10.1285215
            }
        },
        {
            "name": "Heidenheim-Mergelstetten",
            "coordinates": {
                "lat": 48.66002899999999,
                "lng": 10.154595
            }
        },
        {
            "name": "Herbrechtingen",
            "coordinates": {
                "lat": 48.6268982,
                "lng": 10.1731094
            }
        },
        {
            "name": "Aalen Hbf",
            "coordinates": {
                "lat": 48.84096719999999,
                "lng": 10.0959968
            }
        },
        {
            "name": "Konstanz-Petershausen",
            "coordinates": {
                "lat": 47.668333,
                "lng": 9.180833
            }
        },
        {
            "name": "Muggensturm",
            "coordinates": {
                "lat": 48.8696412,
                "lng": 8.2767765
            }
        },
        {
            "name": "Baden-Baden",
            "coordinates": {
                "lat": 48.76564,
                "lng": 8.228524199999999
            }
        },
        {
            "name": "Süßen",
            "coordinates": {
                "lat": 48.67984509999999,
                "lng": 9.7567784
            }
        },
        {
            "name": "Bühl(Baden)",
            "coordinates": {
                "lat": 48.6954722,
                "lng": 8.138060399999999
            }
        },
        {
            "name": "Sinzheim",
            "coordinates": {
                "lat": 48.7623559,
                "lng": 8.1688685
            }
        },
        {
            "name": "Appenweier",
            "coordinates": {
                "lat": 48.5476784,
                "lng": 7.9744954
            }
        },
        {
            "name": "Offenburg",
            "coordinates": {
                "lat": 48.473451,
                "lng": 7.9498017
            }
        },
        {
            "name": "Sinzheim Nord",
            "coordinates": {
                "lat": 48.77110889999999,
                "lng": 8.169971799999999
            }
        },
        {
            "name": "Herbolzheim(Breisg)",
            "coordinates": {
                "lat": 48.223866,
                "lng": 7.767638000000001
            }
        },
        {
            "name": "Achern",
            "coordinates": {
                "lat": 48.6266194,
                "lng": 8.0749207
            }
        },
        {
            "name": "Rastatt",
            "coordinates": {
                "lat": 48.8591174,
                "lng": 8.2059096
            }
        },
        {
            "name": "Baden-Baden Haueneberstein",
            "coordinates": {
                "lat": 48.8063638,
                "lng": 8.222238
            }
        },
        {
            "name": "Baden-Baden Rebland",
            "coordinates": {
                "lat": 48.7351275,
                "lng": 8.1455188
            }
        },
        {
            "name": "Renchen",
            "coordinates": {
                "lat": 48.5862352,
                "lng": 8.011880699999999
            }
        },
        {
            "name": "Ludwigsburg",
            "coordinates": {
                "lat": 48.8940624,
                "lng": 9.195464
            }
        },
        {
            "name": "Stuttgart-Zuffenhausen",
            "coordinates": {
                "lat": 48.8315855,
                "lng": 9.1745921
            }
        },
        {
            "name": "Germersheim",
            "coordinates": {
                "lat": 49.2140244,
                "lng": 8.3668146
            }
        },
        {
            "name": "Tuttlingen",
            "coordinates": {
                "lat": 47.98233159999999,
                "lng": 8.819209599999999
            }
        },
        {
            "name": "Frankenthal Hbf",
            "coordinates": {
                "lat": 49.53593009999999,
                "lng": 8.349643100000002
            }
        },
        {
            "name": "Spaichingen",
            "coordinates": {
                "lat": 48.0748189,
                "lng": 8.7347582
            }
        },
        {
            "name": "Insheim",
            "coordinates": {
                "lat": 49.1572343,
                "lng": 8.143958999999999
            }
        },
        {
            "name": "Rohrbach(Pfalz)",
            "coordinates": {
                "lat": 49.1378332,
                "lng": 8.132206199999999
            }
        },
        {
            "name": "Stuttgart-Untertürkheim",
            "coordinates": {
                "lat": 48.7856737,
                "lng": 9.256158700000002
            }
        },
        {
            "name": "Norsingen",
            "coordinates": {
                "lat": 47.91821729999999,
                "lng": 7.7442905
            }
        },
        {
            "name": "Hulb",
            "coordinates": {
                "lat": 47.7623593,
                "lng": 10.3254528
            }
        },
        {
            "name": "Stuttgart Neckarpark (Mercedes-Benz)",
            "coordinates": {
                "lat": 48.7881453,
                "lng": 9.233982
            }
        },
        {
            "name": "Ludwigshafen(Rh)Hbf",
            "coordinates": {
                "lat": 49.4778688,
                "lng": 8.4345979
            }
        },
        {
            "name": "Philippsburg(Baden)",
            "coordinates": {
                "lat": 49.2352532,
                "lng": 8.458036
            }
        },
        {
            "name": "Groß Rohrheim",
            "coordinates": {
                "lat": 49.7157784,
                "lng": 8.4725086
            }
        },
        {
            "name": "Maikammer-Kirrweiler",
            "coordinates": {
                "lat": 49.3054049,
                "lng": 8.1301345
            }
        },
        {
            "name": "Biblis",
            "coordinates": {
                "lat": 49.6882507,
                "lng": 8.453055899999999
            }
        },
        {
            "name": "Schallstadt",
            "coordinates": {
                "lat": 47.9592778,
                "lng": 7.757092800000001
            }
        },
        {
            "name": "Neustadt(Weinstr) Süd",
            "coordinates": {
                "lat": 49.3501864,
                "lng": 8.1486886
            }
        },
        {
            "name": "Goldberg(Württ)",
            "coordinates": {
                "lat": 48.6972655,
                "lng": 9.0209686
            }
        },
        {
            "name": "Auggen",
            "coordinates": {
                "lat": 47.78808,
                "lng": 7.5909732
            }
        },
        {
            "name": "Niefern",
            "coordinates": {
                "lat": 48.9095567,
                "lng": 8.7983171
            }
        },
        {
            "name": "Karlsruhe Hbf",
            "coordinates": {
                "lat": 48.9935599,
                "lng": 8.401864
            }
        },
        {
            "name": "Welschingen-Neuhausen",
            "coordinates": {
                "lat": 47.8335114,
                "lng": 8.769270299999999
            }
        },
        {
            "name": "Kennelgarten",
            "coordinates": {
                "lat": 49.4409252,
                "lng": 7.733633299999999
            }
        },
        {
            "name": "Ulm Hbf",
            "coordinates": {
                "lat": 48.39944939999999,
                "lng": 9.9832799
            }
        },
        {
            "name": "Tiengen(Hochrhein)",
            "coordinates": {
                "lat": 47.6690571,
                "lng": 8.191311299999999
            }
        },
        {
            "name": "Blaustein",
            "coordinates": {
                "lat": 48.4188443,
                "lng": 9.9077112
            }
        },
        {
            "name": "Schaffhausen",
            "coordinates": {
                "lat": 47.698153,
                "lng": 8.632462
            }
        },
        {
            "name": "Gerhausen",
            "coordinates": {
                "lat": 48.3982801,
                "lng": 9.800670799999999
            }
        },
        {
            "name": "Waldshut",
            "coordinates": {
                "lat": 47.6327253,
                "lng": 8.2719155
            }
        },
        {
            "name": "Schmiechen",
            "coordinates": {
                "lat": 48.214072,
                "lng": 10.9664339
            }
        },
        {
            "name": "Blaubeuren",
            "coordinates": {
                "lat": 48.4073041,
                "lng": 9.7835451
            }
        },
        {
            "name": "Allmendingen",
            "coordinates": {
                "lat": 48.3274006,
                "lng": 9.7202773
            }
        },
        {
            "name": "Erzingen(Baden)",
            "coordinates": {
                "lat": 47.6582944,
                "lng": 8.4244256
            }
        },
        {
            "name": "Eimeldingen",
            "coordinates": {
                "lat": 47.6306222,
                "lng": 7.595158
            }
        },
        {
            "name": "Bürstadt",
            "coordinates": {
                "lat": 49.6441767,
                "lng": 8.4617953
            }
        }
    ],
    "routes": [
        "https://www.zugfinder.de/kbs.php?kbs=770",
        "https://www.zugfinder.de/kbs.php?kbs=740",
        "https://www.zugfinder.de/kbs.php?kbs=790.6b",
        "https://www.zugfinder.de/kbs.php?kbs=790.6a",
        "https://www.zugfinder.de/kbs.php?kbs=790.5",
        "https://www.zugfinder.de/kbs.php?kbs=790.4",
        "https://www.zugfinder.de/kbs.php?kbs=790.3",
        "https://www.zugfinder.de/kbs.php?kbs=790.2",
        "https://www.zugfinder.de/kbs.php?kbs=790.1",
        "https://www.zugfinder.de/kbs.php?kbs=676",
        "https://www.zugfinder.de/kbs.php?kbs=700",
        "https://www.zugfinder.de/kbs.php?kbs=659",
        "https://www.zugfinder.de/kbs.php?kbs=700",
        "https://www.zugfinder.de/kbs.php?kbs=701",
        "https://www.zugfinder.de/kbs.php?kbs=702",
        "https://www.zugfinder.de/kbs.php?kbs=655",
        "https://www.zugfinder.de/kbs.php?kbs=660",
        "https://www.zugfinder.de/kbs.php?kbs=670",
        "https://www.zugfinder.de/kbs.php?kbs=705a",
        "https://www.zugfinder.de/kbs.php?kbs=705b",
        "https://www.zugfinder.de/kbs.php?kbs=771",
        "https://www.zugfinder.de/kbs.php?kbs=720",
        "https://www.zugfinder.de/kbs.php?kbs=739a",
        "https://www.zugfinder.de/kbs.php?kbs=750",
        "https://www.zugfinder.de/kbs.php?kbs=751",
        "https://www.zugfinder.de/kbs.php?kbs=755",
        "https://www.zugfinder.de/kbs.php?kbs=757",
        "https://www.zugfinder.de/kbs.php?kbs=975",
        "https://www.zugfinder.de/kbs.php?kbs=976",
        "https://www.zugfinder.de/kbs.php?kbs=977",
        "https://www.zugfinder.de/kbs.php?kbs=980"
    ]
}