{
    "stations": [{
            "name": "Frankfurt(Main)Hbf",
            "coordinates": {
                "lat": 50.10652899999999,
                "lng": 8.6621618
            }
        },
        {
            "name": "Neu Isenburg",
            "coordinates": {
                "lat": 50.0522076,
                "lng": 8.6952638
            }
        },
        {
            "name": "Langen(Hess)",
            "coordinates": {
                "lat": 49.99146630000001,
                "lng": 8.6634007
            }
        },
        {
            "name": "Darmstadt Hbf",
            "coordinates": {
                "lat": 49.8725676,
                "lng": 8.6295701
            }
        },
        {
            "name": "Darmstadt Süd",
            "coordinates": {
                "lat": 49.8555264,
                "lng": 8.6367013
            }
        },
        {
            "name": "Darmstadt-Eberstadt",
            "coordinates": {
                "lat": 49.8170327,
                "lng": 8.6459789
            }
        },
        {
            "name": "Bickenbach(Bergstr)",
            "coordinates": {
                "lat": 49.7560649,
                "lng": 8.6110515
            }
        },
        {
            "name": "Hähnlein-Alsbach",
            "coordinates": {
                "lat": 49.7364097,
                "lng": 8.570466200000002
            }
        },
        {
            "name": "Zwingenberg(Bergstr)",
            "coordinates": {
                "lat": 49.7250007,
                "lng": 8.6109754
            }
        },
        {
            "name": "Bensheim-Auerbach",
            "coordinates": {
                "lat": 49.7003892,
                "lng": 8.6217769
            }
        },
        {
            "name": "Bensheim",
            "coordinates": {
                "lat": 49.6861354,
                "lng": 8.618729600000002
            }
        },
        {
            "name": "Heppenheim(Bergstr)",
            "coordinates": {
                "lat": 49.6430169,
                "lng": 8.6675419
            }
        },
        {
            "name": "Laudenbach(Bergstr)",
            "coordinates": {
                "lat": 49.6115071,
                "lng": 8.646837
            }
        },
        {
            "name": "Hemsbach",
            "coordinates": {
                "lat": 49.5919707,
                "lng": 8.646049999999999
            }
        },
        {
            "name": "Weinheim(Bergstr)Hbf",
            "coordinates": {
                "lat": 49.55345630000001,
                "lng": 8.665740999999999
            }
        },
        {
            "name": "Weinheim-Lützelsachsen",
            "coordinates": {
                "lat": 49.5288741,
                "lng": 8.6665241
            }
        },
        {
            "name": "Heddesheim/Hirschberg",
            "coordinates": {
                "lat": 49.5077027,
                "lng": 8.6059128
            }
        },
        {
            "name": "Ladenburg",
            "coordinates": {
                "lat": 49.4739759,
                "lng": 8.6077464
            }
        },
        {
            "name": "Mannheim-Friedrichsfeld",
            "coordinates": {
                "lat": 49.4404951,
                "lng": 8.5758288
            }
        },
        {
            "name": "Heidelberg-Pfaffengrund/Wieblingen",
            "coordinates": {
                "lat": 49.4121029,
                "lng": 8.6411509
            }
        },
        {
            "name": "Heidelberg Hbf",
            "coordinates": {
                "lat": 49.4039382,
                "lng": 8.675814299999999
            }
        },
        {
            "name": "Königstein(Taunus)",
            "coordinates": {
                "lat": 50.17874,
                "lng": 8.47191
            }
        },
        {
            "name": "Schneidhain",
            "coordinates": {
                "lat": 50.1711355,
                "lng": 8.4527687
            }
        },
        {
            "name": "Kelkheim-Hornau",
            "coordinates": {
                "lat": 50.13391590000001,
                "lng": 8.451965699999999
            }
        },
        {
            "name": "Kelkheim",
            "coordinates": {
                "lat": 50.13489000000001,
                "lng": 8.45121
            }
        },
        {
            "name": "Kelkheim-Münster",
            "coordinates": {
                "lat": 50.1248995,
                "lng": 8.461784999999999
            }
        },
        {
            "name": "Liederbach",
            "coordinates": {
                "lat": 50.1275302,
                "lng": 8.484905399999999
            }
        },
        {
            "name": "Liederbach-Süd",
            "coordinates": {
                "lat": 50.1155371,
                "lng": 8.5011148
            }
        },
        {
            "name": "Frankfurt-Unterliederbach",
            "coordinates": {
                "lat": 50.1077555,
                "lng": 8.528680399999999
            }
        },
        {
            "name": "Frankfurt-Höchst",
            "coordinates": {
                "lat": 50.10248199999999,
                "lng": 8.547457099999999
            }
        },
        {
            "name": "Wiesbaden Hbf",
            "coordinates": {
                "lat": 50.0708784,
                "lng": 8.2434593
            }
        },
        {
            "name": "Mainz Hbf",
            "coordinates": {
                "lat": 50.001481,
                "lng": 8.2590637
            }
        },
        {
            "name": "Mainz Römisches Theater",
            "coordinates": {
                "lat": 49.9935677,
                "lng": 8.2778033
            }
        },
        {
            "name": "Mainz-Bischofsheim",
            "coordinates": {
                "lat": 49.9870871,
                "lng": 8.356219099999999
            }
        },
        {
            "name": "Nauheim(b Gr.Gerau)",
            "coordinates": {
                "lat": 49.9422304,
                "lng": 8.4500491
            }
        },
        {
            "name": "Groß Gerau",
            "coordinates": {
                "lat": 49.9203655,
                "lng": 8.4847038
            }
        },
        {
            "name": "Klein Gerau",
            "coordinates": {
                "lat": 49.9204015,
                "lng": 8.521720199999999
            }
        },
        {
            "name": "Weiterstadt",
            "coordinates": {
                "lat": 49.8991611,
                "lng": 8.5991073
            }
        },
        {
            "name": "Darmstadt Nord",
            "coordinates": {
                "lat": 49.8840187,
                "lng": 8.6514922
            }
        },
        {
            "name": "Darmstadt-Kranichstein",
            "coordinates": {
                "lat": 49.8958844,
                "lng": 8.6861775
            }
        },
        {
            "name": "Messel",
            "coordinates": {
                "lat": 49.9367079,
                "lng": 8.7429481
            }
        },
        {
            "name": "Dieburg",
            "coordinates": {
                "lat": 49.9010547,
                "lng": 8.8444959
            }
        },
        {
            "name": "Altheim(Hess)",
            "coordinates": {
                "lat": 49.9156539,
                "lng": 8.8925772
            }
        },
        {
            "name": "Hergershausen",
            "coordinates": {
                "lat": 49.93986630000001,
                "lng": 8.913508
            }
        },
        {
            "name": "Babenhausen(Hess)",
            "coordinates": {
                "lat": 49.9593613,
                "lng": 8.9588974
            }
        },
        {
            "name": "Stockstadt(Main)",
            "coordinates": {
                "lat": 49.97011639999999,
                "lng": 9.071630100000002
            }
        },
        {
            "name": "Mainaschaff",
            "coordinates": {
                "lat": 49.9817853,
                "lng": 9.0805945
            }
        },
        {
            "name": "Aschaffenburg Hbf",
            "coordinates": {
                "lat": 49.9805795,
                "lng": 9.1436488
            }
        },
        {
            "name": "Mainz-Kastel",
            "coordinates": {
                "lat": 50.0192814,
                "lng": 8.2806368
            }
        },
        {
            "name": "Wiesbaden-Biebrich",
            "coordinates": {
                "lat": 50.0517113,
                "lng": 8.2390966
            }
        },
        {
            "name": "Wiesbaden-Schierstein",
            "coordinates": {
                "lat": 50.0445973,
                "lng": 8.1962967
            }
        },
        {
            "name": "Niederwalluf",
            "coordinates": {
                "lat": 50.0399159,
                "lng": 8.1551905
            }
        },
        {
            "name": "Eltville",
            "coordinates": {
                "lat": 50.0289744,
                "lng": 8.119173
            }
        },
        {
            "name": "Erbach(Rheingau)",
            "coordinates": {
                "lat": 50.02072940000001,
                "lng": 8.096091
            }
        },
        {
            "name": "Hattenheim",
            "coordinates": {
                "lat": 50.0151288,
                "lng": 8.0560923
            }
        },
        {
            "name": "Oestrich-Winkel",
            "coordinates": {
                "lat": 50.0030906,
                "lng": 8.0152246
            }
        },
        {
            "name": "Geisenheim",
            "coordinates": {
                "lat": 49.9864335,
                "lng": 7.966694199999999
            }
        },
        {
            "name": "Rüdesheim(Rhein)",
            "coordinates": {
                "lat": 49.98214429999999,
                "lng": 7.9301124
            }
        },
        {
            "name": "Assmannshausen",
            "coordinates": {
                "lat": 49.9883268,
                "lng": 7.8688668
            }
        },
        {
            "name": "Lorch(Rhein)",
            "coordinates": {
                "lat": 50.0461912,
                "lng": 7.804024800000001
            }
        },
        {
            "name": "Lorchhausen",
            "coordinates": {
                "lat": 50.0527857,
                "lng": 7.7844267
            }
        },
        {
            "name": "Kaub",
            "coordinates": {
                "lat": 50.0880609,
                "lng": 7.7621116
            }
        },
        {
            "name": "St Goarshausen",
            "coordinates": {
                "lat": 50.1560978,
                "lng": 7.713451800000001
            }
        },
        {
            "name": "Kestert",
            "coordinates": {
                "lat": 50.1861662,
                "lng": 7.648368
            }
        },
        {
            "name": "Kamp-Bornhofen",
            "coordinates": {
                "lat": 50.2250015,
                "lng": 7.621989399999999
            }
        },
        {
            "name": "Filsen",
            "coordinates": {
                "lat": 50.2397281,
                "lng": 7.585571099999999
            }
        },
        {
            "name": "Osterspai",
            "coordinates": {
                "lat": 50.2450264,
                "lng": 7.613937699999999
            }
        },
        {
            "name": "Braubach",
            "coordinates": {
                "lat": 50.2772844,
                "lng": 7.6436862
            }
        },
        {
            "name": "Oberlahnstein",
            "coordinates": {
                "lat": 50.29993,
                "lng": 7.6042046
            }
        },
        {
            "name": "Niederlahnstein",
            "coordinates": {
                "lat": 50.3158239,
                "lng": 7.598081799999999
            }
        },
        {
            "name": "Koblenz Hbf",
            "coordinates": {
                "lat": 50.350716,
                "lng": 7.5892721
            }
        },
        {
            "name": "Koblenz Stadtmitte",
            "coordinates": {
                "lat": 50.3580107,
                "lng": 7.589980600000001
            }
        },
        {
            "name": "Neuwied",
            "coordinates": {
                "lat": 50.4361866,
                "lng": 7.4664546
            }
        },
        {
            "name": "Mannheim Hbf",
            "coordinates": {
                "lat": 49.4796668,
                "lng": 8.4698038
            }
        },
        {
            "name": "Mannheim Handelshafen",
            "coordinates": {
                "lat": 49.4918837,
                "lng": 8.453858799999999
            }
        },
        {
            "name": "Mannheim-Neckarstadt",
            "coordinates": {
                "lat": 49.5022134,
                "lng": 8.4651956
            }
        },
        {
            "name": "Mannheim-Luzenberg",
            "coordinates": {
                "lat": 49.516564,
                "lng": 8.4797668
            }
        },
        {
            "name": "Mannheim-Waldhof",
            "coordinates": {
                "lat": 49.5206848,
                "lng": 8.4837651
            }
        },
        {
            "name": "Lampertheim",
            "coordinates": {
                "lat": 49.59972670000001,
                "lng": 8.466599
            }
        },
        {
            "name": "Bürstadt",
            "coordinates": {
                "lat": 49.6441767,
                "lng": 8.4617953
            }
        },
        {
            "name": "Bobstadt",
            "coordinates": {
                "lat": 49.6632322,
                "lng": 8.4471776
            }
        },
        {
            "name": "Biblis",
            "coordinates": {
                "lat": 49.6882507,
                "lng": 8.453055899999999
            }
        },
        {
            "name": "Groß Rohrheim",
            "coordinates": {
                "lat": 49.7157784,
                "lng": 8.4725086
            }
        },
        {
            "name": "Gernsheim",
            "coordinates": {
                "lat": 49.7574082,
                "lng": 8.4885231
            }
        },
        {
            "name": "Biebesheim",
            "coordinates": {
                "lat": 49.7792822,
                "lng": 8.4743923
            }
        },
        {
            "name": "Stockstadt(Rhein)",
            "coordinates": {
                "lat": 49.8074541,
                "lng": 8.4686308
            }
        },
        {
            "name": "Riedstadt-Goddelau",
            "coordinates": {
                "lat": 49.833498,
                "lng": 8.4937
            }
        },
        {
            "name": "Riedstadt-Wolfskehlen",
            "coordinates": {
                "lat": 49.8550452,
                "lng": 8.4985932
            }
        },
        {
            "name": "Groß Gerau-Dornheim",
            "coordinates": {
                "lat": 49.8766366,
                "lng": 8.485474800000002
            }
        },
        {
            "name": "Groß Gerau-Dornberg",
            "coordinates": {
                "lat": 49.9119265,
                "lng": 8.4951867
            }
        },
        {
            "name": "Mörfelden",
            "coordinates": {
                "lat": 49.980722,
                "lng": 8.561487
            }
        },
        {
            "name": "Walldorf(Hess)",
            "coordinates": {
                "lat": 50.00322329999999,
                "lng": 8.5716643
            }
        },
        {
            "name": "Zeppelinheim",
            "coordinates": {
                "lat": 50.0350671,
                "lng": 8.612769799999999
            }
        },
        {
            "name": "Frankfurt am Main - Stadion",
            "coordinates": {
                "lat": 50.0685807,
                "lng": 8.645472
            }
        },
        {
            "name": "Frankfurt-Niederrad",
            "coordinates": {
                "lat": 50.083698,
                "lng": 8.6443596
            }
        },
        {
            "name": "Rhens",
            "coordinates": {
                "lat": 50.280489,
                "lng": 7.618111000000001
            }
        },
        {
            "name": "Spay",
            "coordinates": {
                "lat": 50.2599509,
                "lng": 7.64758
            }
        },
        {
            "name": "Boppard Hbf",
            "coordinates": {
                "lat": 50.2314008,
                "lng": 7.585905599999999
            }
        },
        {
            "name": "Boppard-Bad Salzig",
            "coordinates": {
                "lat": 50.2048522,
                "lng": 7.6321395
            }
        },
        {
            "name": "Boppard-Hirzenach",
            "coordinates": {
                "lat": 50.1779172,
                "lng": 7.6431202
            }
        },
        {
            "name": "St Goar",
            "coordinates": {
                "lat": 50.1481961,
                "lng": 7.7060771
            }
        },
        {
            "name": "Oberwesel",
            "coordinates": {
                "lat": 50.1065003,
                "lng": 7.727255100000001
            }
        },
        {
            "name": "Bacharach",
            "coordinates": {
                "lat": 50.0604184,
                "lng": 7.7681136
            }
        },
        {
            "name": "Niederheimbach",
            "coordinates": {
                "lat": 50.0316068,
                "lng": 7.8028125
            }
        },
        {
            "name": "Trechtingshausen",
            "coordinates": {
                "lat": 50.0118006,
                "lng": 7.846280099999999
            }
        },
        {
            "name": "Bingen(Rhein) Hbf",
            "coordinates": {
                "lat": 49.9685379,
                "lng": 7.884201500000001
            }
        },
        {
            "name": "Bingen(Rhein) Stadt",
            "coordinates": {
                "lat": 49.9667396,
                "lng": 7.904596000000001
            }
        },
        {
            "name": "Bingen-Gaulsheim",
            "coordinates": {
                "lat": 49.9635688,
                "lng": 7.9525462
            }
        },
        {
            "name": "Gau Algesheim",
            "coordinates": {
                "lat": 49.9584771,
                "lng": 8.0173325
            }
        },
        {
            "name": "Ingelheim",
            "coordinates": {
                "lat": 49.9764195,
                "lng": 8.0560682
            }
        },
        {
            "name": "Heidesheim(Rheinhess)",
            "coordinates": {
                "lat": 50,
                "lng": 8.125833
            }
        },
        {
            "name": "Uhlerborn",
            "coordinates": {
                "lat": 50.0049224,
                "lng": 8.1372745
            }
        },
        {
            "name": "Budenheim",
            "coordinates": {
                "lat": 50.0241889,
                "lng": 8.1727507
            }
        },
        {
            "name": "Mainz-Mombach",
            "coordinates": {
                "lat": 50.0201939,
                "lng": 8.2280816
            }
        },
        {
            "name": "Mainz-Gustavsburg",
            "coordinates": {
                "lat": 49.9930544,
                "lng": 8.3220536
            }
        },
        {
            "name": "Rüsselsheim Opelwerk",
            "coordinates": {
                "lat": 49.9879659,
                "lng": 8.400626299999999
            }
        },
        {
            "name": "Rüsselsheim",
            "coordinates": {
                "lat": 49.9887497,
                "lng": 8.4216976
            }
        },
        {
            "name": "Raunheim",
            "coordinates": {
                "lat": 50.0104109,
                "lng": 8.4529178
            }
        },
        {
            "name": "Kelsterbach",
            "coordinates": {
                "lat": 50.0597078,
                "lng": 8.5297786
            }
        },
        {
            "name": "Frankfurt(M) Flughafen Regionalbf",
            "coordinates": {
                "lat": 50.0528825,
                "lng": 8.5698718
            }
        },
        {
            "name": "Frankfurt(Main)Süd",
            "coordinates": {
                "lat": 50.07605700000001,
                "lng": 8.6700409
            }
        },
        {
            "name": "Frankfurt(Main)Ost",
            "coordinates": {
                "lat": 50.1542766,
                "lng": 8.716890099999999
            }
        },
        {
            "name": "Frankfurt-Mainkur",
            "coordinates": {
                "lat": 50.1325583,
                "lng": 8.7664046
            }
        },
        {
            "name": "Maintal West",
            "coordinates": {
                "lat": 50.14720579999999,
                "lng": 8.824969099999999
            }
        },
        {
            "name": "Maintal Ost",
            "coordinates": {
                "lat": 50.1421649,
                "lng": 8.8361969
            }
        },
        {
            "name": "Hanau-Wilhelmsbad",
            "coordinates": {
                "lat": 50.14915,
                "lng": 8.881008999999999
            }
        },
        {
            "name": "Hanau West",
            "coordinates": {
                "lat": 50.1264123,
                "lng": 8.9283105
            }
        },
        {
            "name": "Hanau Hbf",
            "coordinates": {
                "lat": 50.1214325,
                "lng": 8.9298894
            }
        },
        {
            "name": "Großauheim(Kr Hanau)",
            "coordinates": {
                "lat": 50.1073391,
                "lng": 8.9431984
            }
        },
        {
            "name": "Großkrotzenburg",
            "coordinates": {
                "lat": 50.0818163,
                "lng": 8.9839637
            }
        },
        {
            "name": "Kahl(Main)",
            "coordinates": {
                "lat": 50.07438579999999,
                "lng": 9.0071429
            }
        },
        {
            "name": "Dettingen(Main)",
            "coordinates": {
                "lat": 50.04232870000001,
                "lng": 9.0341785
            }
        },
        {
            "name": "Rückersbacher Schlucht",
            "coordinates": {
                "lat": 50.0249726,
                "lng": 9.0816576
            }
        },
        {
            "name": "Kleinostheim",
            "coordinates": {
                "lat": 50.0042304,
                "lng": 9.0658932
            }
        },
        {
            "name": "Bad Soden(Taunus)",
            "coordinates": {
                "lat": 50.1461462,
                "lng": 8.498569
            }
        },
        {
            "name": "Sulzbach(Taunus)",
            "coordinates": {
                "lat": 50.1336435,
                "lng": 8.522376099999999
            }
        },
        {
            "name": "Frankfurt-Sossenheim",
            "coordinates": {
                "lat": 50.12408110000001,
                "lng": 8.572095
            }
        },
        {
            "name": "Brandoberndorf",
            "coordinates": {
                "lat": 50.4354258,
                "lng": 8.496376099999999
            }
        },
        {
            "name": "Hasselborn",
            "coordinates": {
                "lat": 50.4066124,
                "lng": 8.490114
            }
        },
        {
            "name": "Grävenwiesbach",
            "coordinates": {
                "lat": 50.3879853,
                "lng": 8.4573488
            }
        },
        {
            "name": "Hundstadt",
            "coordinates": {
                "lat": 50.3706775,
                "lng": 8.4658936
            }
        },
        {
            "name": "Wilhelmsdorf",
            "coordinates": {
                "lat": 47.86645250000001,
                "lng": 9.4273628
            }
        },
        {
            "name": "Usingen",
            "coordinates": {
                "lat": 50.3353122,
                "lng": 8.5320064
            }
        },
        {
            "name": "Hausen(Taunus)",
            "coordinates": {
                "lat": 50.13494739999999,
                "lng": 8.6270024
            }
        },
        {
            "name": "Neu-Anspach",
            "coordinates": {
                "lat": 50.2961543,
                "lng": 8.498942099999999
            }
        },
        {
            "name": "Wehrheim",
            "coordinates": {
                "lat": 50.3027628,
                "lng": 8.5678658
            }
        },
        {
            "name": "Saalburg(Taunus)",
            "coordinates": {
                "lat": 50.271747,
                "lng": 8.566571399999999
            }
        },
        {
            "name": "Köppern",
            "coordinates": {
                "lat": 50.2758258,
                "lng": 8.6506064
            }
        },
        {
            "name": "Friedrichsdorf(Taunus)",
            "coordinates": {
                "lat": 50.2538496,
                "lng": 8.6417409
            }
        },
        {
            "name": "Seulberg",
            "coordinates": {
                "lat": 50.2450957,
                "lng": 8.6489026
            }
        },
        {
            "name": "Bad Homburg",
            "coordinates": {
                "lat": 50.22683079999999,
                "lng": 8.6181618
            }
        },
        {
            "name": "Oberursel(Taunus)",
            "coordinates": {
                "lat": 50.2025478,
                "lng": 8.5770309
            }
        },
        {
            "name": "Oberursel-Stierstadt",
            "coordinates": {
                "lat": 50.1817349,
                "lng": 8.5845115
            }
        },
        {
            "name": "OberurselWeißkirchen/Steinbach",
            "coordinates": {
                "lat": 50.1685185,
                "lng": 8.5727835
            }
        },
        {
            "name": "Frankfurt-Rödelheim",
            "coordinates": {
                "lat": 50.127714,
                "lng": 8.607680499999999
            }
        },
        {
            "name": "Frankfurt(Main)West",
            "coordinates": {
                "lat": 50.1025272,
                "lng": 8.5530175
            }
        },
        {
            "name": "Frankfurt(Main)Messe",
            "coordinates": {
                "lat": 50.111742,
                "lng": 8.6477007
            }
        },
        {
            "name": "Frankfurt(M)Galluswarte",
            "coordinates": {
                "lat": 50.1033384,
                "lng": 8.644833499999999
            }
        },
        {
            "name": "Frankfurt(M) Flughafen Fernbf",
            "coordinates": {
                "lat": 50.0528847,
                "lng": 8.5698686
            }
        },
        {
            "name": "Limburg Süd",
            "coordinates": {
                "lat": 50.3823249,
                "lng": 8.0958135
            }
        },
        {
            "name": "Montabaur",
            "coordinates": {
                "lat": 50.4358385,
                "lng": 7.825795299999999
            }
        },
        {
            "name": "Siegburg/Bonn",
            "coordinates": {
                "lat": 50.7998473,
                "lng": 7.2074514
            }
        },
        {
            "name": "Köln/Bonn Flughafen",
            "coordinates": {
                "lat": 50.8707168,
                "lng": 7.140734399999999
            }
        },
        {
            "name": "Köln Messe/Deutz Gl.11-12",
            "coordinates": {
                "lat": 50.9411975,
                "lng": 6.9738877
            }
        },
        {
            "name": "Köln Hbf",
            "coordinates": {
                "lat": 50.9432141,
                "lng": 6.9586017
            }
        },
        {
            "name": "Limburg(Lahn)",
            "coordinates": {
                "lat": 50.3986005,
                "lng": 8.0795783
            }
        },
        {
            "name": "Eschhofen",
            "coordinates": {
                "lat": 50.3909028,
                "lng": 8.101303999999999
            }
        },
        {
            "name": "Lindenholzhausen",
            "coordinates": {
                "lat": 50.3765797,
                "lng": 8.120290299999999
            }
        },
        {
            "name": "Niederbrechen",
            "coordinates": {
                "lat": 50.3643656,
                "lng": 8.1646781
            }
        },
        {
            "name": "Oberbrechen",
            "coordinates": {
                "lat": 50.3538618,
                "lng": 8.1938545
            }
        },
        {
            "name": "Niederselters",
            "coordinates": {
                "lat": 50.3350285,
                "lng": 8.2305013
            }
        },
        {
            "name": "Bad Camberg",
            "coordinates": {
                "lat": 50.2982625,
                "lng": 8.265035899999999
            }
        },
        {
            "name": "Wörsdorf",
            "coordinates": {
                "lat": 50.2451428,
                "lng": 8.253577
            }
        },
        {
            "name": "Idstein(Taunus)",
            "coordinates": {
                "lat": 50.2167926,
                "lng": 8.256907700000001
            }
        },
        {
            "name": "Niedernhausen(Taunus)",
            "coordinates": {
                "lat": 50.1632247,
                "lng": 8.3142131
            }
        },
        {
            "name": "Hofheim(Taunus)",
            "coordinates": {
                "lat": 50.0841829,
                "lng": 8.4432295
            }
        },
        {
            "name": "Gießen",
            "coordinates": {
                "lat": 50.5840512,
                "lng": 8.678403099999999
            }
        },
        {
            "name": "Großen Linden",
            "coordinates": {
                "lat": 50.5268808,
                "lng": 8.654294799999999
            }
        },
        {
            "name": "Lang Göns",
            "coordinates": {
                "lat": 50.4977594,
                "lng": 8.6628601
            }
        },
        {
            "name": "Kirch Göns",
            "coordinates": {
                "lat": 50.4722407,
                "lng": 8.6537645
            }
        },
        {
            "name": "Butzbach",
            "coordinates": {
                "lat": 50.43503579999999,
                "lng": 8.6688418
            }
        },
        {
            "name": "Ostheim(b Butzbach)",
            "coordinates": {
                "lat": 50.40646770000001,
                "lng": 8.6752716
            }
        },
        {
            "name": "Bad Nauheim",
            "coordinates": {
                "lat": 50.3672668,
                "lng": 8.739391399999999
            }
        },
        {
            "name": "Friedberg(Hess)",
            "coordinates": {
                "lat": 50.3248933,
                "lng": 8.74087
            }
        },
        {
            "name": "Bad Vilbel",
            "coordinates": {
                "lat": 50.18233559999999,
                "lng": 8.739480499999999
            }
        },
        {
            "name": "Siegen",
            "coordinates": {
                "lat": 50.8838492,
                "lng": 8.020959099999999
            }
        },
        {
            "name": "Rudersdorf(Siegen)",
            "coordinates": {
                "lat": 50.8414463,
                "lng": 8.1491971
            }
        },
        {
            "name": "Dillbrecht",
            "coordinates": {
                "lat": 50.8096556,
                "lng": 8.2011089
            }
        },
        {
            "name": "Rodenbach(Dillkr)",
            "coordinates": {
                "lat": 50.773991,
                "lng": 8.205263
            }
        },
        {
            "name": "Haiger",
            "coordinates": {
                "lat": 50.7412021,
                "lng": 8.206550499999999
            }
        },
        {
            "name": "Sechshelden",
            "coordinates": {
                "lat": 50.7472353,
                "lng": 8.2514385
            }
        },
        {
            "name": "Dillenburg",
            "coordinates": {
                "lat": 50.7452841,
                "lng": 8.280763
            }
        },
        {
            "name": "Niederscheld(Dillkr)Süd",
            "coordinates": {
                "lat": 50.7177811,
                "lng": 8.3032032
            }
        },
        {
            "name": "Burg(Dillkr) Nord",
            "coordinates": {
                "lat": 50.699884,
                "lng": 8.3076861
            }
        },
        {
            "name": "Herborn(Dillkr)",
            "coordinates": {
                "lat": 50.6845097,
                "lng": 8.3077565
            }
        },
        {
            "name": "Sinn",
            "coordinates": {
                "lat": 50.6532309,
                "lng": 8.3305457
            }
        },
        {
            "name": "Edingen(Wetzlar)",
            "coordinates": {
                "lat": 50.633353,
                "lng": 8.318888099999999
            }
        },
        {
            "name": "Katzenfurt",
            "coordinates": {
                "lat": 50.6188054,
                "lng": 8.348823399999999
            }
        },
        {
            "name": "Ehringshausen(Kr Wetzlar)",
            "coordinates": {
                "lat": 50.595066,
                "lng": 8.383841
            }
        },
        {
            "name": "Werdorf",
            "coordinates": {
                "lat": 50.600012,
                "lng": 8.4192932
            }
        },
        {
            "name": "Aßlar",
            "coordinates": {
                "lat": 50.5895427,
                "lng": 8.466855899999999
            }
        },
        {
            "name": "Wetzlar",
            "coordinates": {
                "lat": 50.5589802,
                "lng": 8.5081645
            }
        },
        {
            "name": "Dutenhofen(Wetzlar)",
            "coordinates": {
                "lat": 50.56078669999999,
                "lng": 8.598304599999999
            }
        },
        {
            "name": "Fulda",
            "coordinates": {
                "lat": 50.5558095,
                "lng": 9.6808449
            }
        },
        {
            "name": "Neuhof(Kr Fulda)",
            "coordinates": {
                "lat": 50.454812,
                "lng": 9.6203557
            }
        },
        {
            "name": "Flieden",
            "coordinates": {
                "lat": 50.4237389,
                "lng": 9.5646005
            }
        },
        {
            "name": "Schlüchtern",
            "coordinates": {
                "lat": 50.3493544,
                "lng": 9.5255493
            }
        },
        {
            "name": "Steinau(Straße)",
            "coordinates": {
                "lat": 50.3166763,
                "lng": 9.4512419
            }
        },
        {
            "name": "Bad Soden-Salmünster",
            "coordinates": {
                "lat": 50.2741053,
                "lng": 9.3721825
            }
        },
        {
            "name": "Wächtersbach",
            "coordinates": {
                "lat": 50.2550222,
                "lng": 9.2918865
            }
        },
        {
            "name": "Wirtheim",
            "coordinates": {
                "lat": 50.22240069999999,
                "lng": 9.264614
            }
        },
        {
            "name": "Haitz-Höchst",
            "coordinates": {
                "lat": 50.2083454,
                "lng": 9.2265537
            }
        },
        {
            "name": "Gelnhausen",
            "coordinates": {
                "lat": 50.2045664,
                "lng": 9.1863725
            }
        },
        {
            "name": "Hailer-Meerholz",
            "coordinates": {
                "lat": 50.1824836,
                "lng": 9.1363869
            }
        },
        {
            "name": "Niedermittlau",
            "coordinates": {
                "lat": 50.169357,
                "lng": 9.123941
            }
        },
        {
            "name": "Langenselbold",
            "coordinates": {
                "lat": 50.1795159,
                "lng": 9.0400136
            }
        },
        {
            "name": "Rodenbach(b Hanau)",
            "coordinates": {
                "lat": 50.147267,
                "lng": 9.012559999999999
            }
        },
        {
            "name": "Wolfgang(Kr Hanau)",
            "coordinates": {
                "lat": 50.1234121,
                "lng": 8.9580967
            }
        },
        {
            "name": "Offenbach(Main)Hbf",
            "coordinates": {
                "lat": 50.0995258,
                "lng": 8.7606933
            }
        },
        {
            "name": "Kassel Hbf",
            "coordinates": {
                "lat": 51.31826,
                "lng": 9.489500999999999
            }
        },
        {
            "name": "Kassel-Wilhelmshöhe",
            "coordinates": {
                "lat": 51.31107590000001,
                "lng": 9.403286099999999
            }
        },
        {
            "name": "Kassel-Oberzwehren",
            "coordinates": {
                "lat": 51.2735289,
                "lng": 9.442736799999999
            }
        },
        {
            "name": "Baunatal-Rengershausen",
            "coordinates": {
                "lat": 51.2555844,
                "lng": 9.452278699999999
            }
        },
        {
            "name": "Baunatal-Guntershausen",
            "coordinates": {
                "lat": 51.2340889,
                "lng": 9.4649441
            }
        },
        {
            "name": "Edermünde-Grifte",
            "coordinates": {
                "lat": 51.2113609,
                "lng": 9.4441578
            }
        },
        {
            "name": "Felsberg-Wolfershausen",
            "coordinates": {
                "lat": 51.1828667,
                "lng": 9.445737099999999
            }
        },
        {
            "name": "Felsberg-Altenbrunslar",
            "coordinates": {
                "lat": 51.1661265,
                "lng": 9.444806699999999
            }
        },
        {
            "name": "Felsberg-Gensungen",
            "coordinates": {
                "lat": 51.1301502,
                "lng": 9.4373284
            }
        },
        {
            "name": "Wabern(Bz Kassel)",
            "coordinates": {
                "lat": 51.1033186,
                "lng": 9.3579213
            }
        },
        {
            "name": "Singlis",
            "coordinates": {
                "lat": 51.0585689,
                "lng": 9.3206471
            }
        },
        {
            "name": "Borken(Hess)",
            "coordinates": {
                "lat": 51.0518467,
                "lng": 9.2813226
            }
        },
        {
            "name": "Zimmersrode",
            "coordinates": {
                "lat": 51.01033529999999,
                "lng": 9.2244532
            }
        },
        {
            "name": "Schlierbach(Schwalm-Eder-Kr.)",
            "coordinates": {
                "lat": 50.9686039,
                "lng": 9.200758
            }
        },
        {
            "name": "Treysa",
            "coordinates": {
                "lat": 50.9093278,
                "lng": 9.1892711
            }
        },
        {
            "name": "Schwalmstadt-Wiera",
            "coordinates": {
                "lat": 50.88236300000001,
                "lng": 9.1401577
            }
        },
        {
            "name": "Neustadt(Kr Marburg)",
            "coordinates": {
                "lat": 50.8504891,
                "lng": 9.120540199999999
            }
        },
        {
            "name": "Stadtallendorf",
            "coordinates": {
                "lat": 50.8218537,
                "lng": 9.020215100000001
            }
        },
        {
            "name": "Kirchhain(Bz Kassel)",
            "coordinates": {
                "lat": 50.8236017,
                "lng": 8.9214477
            }
        },
        {
            "name": "Anzefahr",
            "coordinates": {
                "lat": 50.844662,
                "lng": 8.8653804
            }
        },
        {
            "name": "Bürgeln",
            "coordinates": {
                "lat": 50.8549247,
                "lng": 8.825305
            }
        },
        {
            "name": "Cölbe",
            "coordinates": {
                "lat": 50.85064329999999,
                "lng": 8.7810455
            }
        },
        {
            "name": "Marburg(Lahn)",
            "coordinates": {
                "lat": 50.8021728,
                "lng": 8.7667933
            }
        },
        {
            "name": "Marburg Süd",
            "coordinates": {
                "lat": 50.794566,
                "lng": 8.7627685
            }
        },
        {
            "name": "Niederweimar",
            "coordinates": {
                "lat": 50.76246030000001,
                "lng": 8.7317287
            }
        },
        {
            "name": "Niederwalgern",
            "coordinates": {
                "lat": 50.7360736,
                "lng": 8.699808599999999
            }
        },
        {
            "name": "Fronhausen(Lahn)",
            "coordinates": {
                "lat": 50.70400249999999,
                "lng": 8.6943664
            }
        },
        {
            "name": "Friedelhausen",
            "coordinates": {
                "lat": 49.54271259999999,
                "lng": 7.495994199999999
            }
        },
        {
            "name": "Gießen Oswaldsgarten",
            "coordinates": {
                "lat": 50.5881857,
                "lng": 8.6688922
            }
        },
        {
            "name": "Lollar",
            "coordinates": {
                "lat": 50.6470102,
                "lng": 8.7036303
            }
        },
        {
            "name": "Köln Messe/Deutz",
            "coordinates": {
                "lat": 50.9404277,
                "lng": 6.9743984
            }
        },
        {
            "name": "Porz(Rhein)",
            "coordinates": {
                "lat": 50.8829388,
                "lng": 7.062456099999999
            }
        },
        {
            "name": "Porz-Wahn",
            "coordinates": {
                "lat": 50.8610639,
                "lng": 7.090783399999999
            }
        },
        {
            "name": "Spich",
            "coordinates": {
                "lat": 50.8304521,
                "lng": 7.1148986
            }
        },
        {
            "name": "Troisdorf",
            "coordinates": {
                "lat": 50.8177471,
                "lng": 7.1430246
            }
        },
        {
            "name": "Friedrich Wilhelmshütte",
            "coordinates": {
                "lat": 50.8026071,
                "lng": 7.1539547
            }
        },
        {
            "name": "Menden(Rheinl)",
            "coordinates": {
                "lat": 50.78020069999999,
                "lng": 7.149734599999999
            }
        },
        {
            "name": "Bonn-Beuel",
            "coordinates": {
                "lat": 50.743865,
                "lng": 7.122701699999999
            }
        },
        {
            "name": "Bonn-Oberkassel",
            "coordinates": {
                "lat": 50.7170353,
                "lng": 7.1608813
            }
        },
        {
            "name": "Niederdollendorf",
            "coordinates": {
                "lat": 50.68393760000001,
                "lng": 7.1887508
            }
        },
        {
            "name": "Königswinter",
            "coordinates": {
                "lat": 50.69200379999999,
                "lng": 7.1861849
            }
        },
        {
            "name": "Rhöndorf",
            "coordinates": {
                "lat": 50.66131009999999,
                "lng": 7.209166499999999
            }
        },
        {
            "name": "Bad Honnef(Rhein)",
            "coordinates": {
                "lat": 50.6426173,
                "lng": 7.226244599999999
            }
        },
        {
            "name": "Unkel",
            "coordinates": {
                "lat": 50.5998785,
                "lng": 7.2181189
            }
        },
        {
            "name": "Erpel(Rhein)",
            "coordinates": {
                "lat": 50.5862326,
                "lng": 7.236866300000001
            }
        },
        {
            "name": "Linz(Rhein)",
            "coordinates": {
                "lat": 50.568141,
                "lng": 7.284786999999999
            }
        },
        {
            "name": "Leubsdorf(Rhein)",
            "coordinates": {
                "lat": 50.54630969999999,
                "lng": 7.288303000000001
            }
        },
        {
            "name": "Bad Hönningen",
            "coordinates": {
                "lat": 50.5175662,
                "lng": 7.3085333
            }
        },
        {
            "name": "Rheinbrohl",
            "coordinates": {
                "lat": 50.4957967,
                "lng": 7.334199900000001
            }
        },
        {
            "name": "Leutesdorf(Rhein)",
            "coordinates": {
                "lat": 50.45207449999999,
                "lng": 7.385345099999999
            }
        },
        {
            "name": "Engers",
            "coordinates": {
                "lat": 50.42584069999999,
                "lng": 7.545019699999999
            }
        },
        {
            "name": "Vallendar",
            "coordinates": {
                "lat": 50.397136,
                "lng": 7.622021999999999
            }
        },
        {
            "name": "Koblenz-Ehrenbreitstein",
            "coordinates": {
                "lat": 50.3589181,
                "lng": 7.6153046
            }
        },
        {
            "name": "Guxhagen",
            "coordinates": {
                "lat": 51.207579,
                "lng": 9.4824228
            }
        },
        {
            "name": "Körle",
            "coordinates": {
                "lat": 51.17278810000001,
                "lng": 9.517891800000001
            }
        },
        {
            "name": "Melsungen-Röhrenfurth",
            "coordinates": {
                "lat": 51.1580646,
                "lng": 9.547507399999999
            }
        },
        {
            "name": "Melsungen Bartenwetzerbrücke",
            "coordinates": {
                "lat": 51.1317695,
                "lng": 9.5472498
            }
        },
        {
            "name": "Melsungen",
            "coordinates": {
                "lat": 51.1276976,
                "lng": 9.549567699999999
            }
        },
        {
            "name": "Malsfeld",
            "coordinates": {
                "lat": 51.0915158,
                "lng": 9.5378968
            }
        },
        {
            "name": "Malsfeld-Beiseförth",
            "coordinates": {
                "lat": 51.07978989999999,
                "lng": 9.545728
            }
        },
        {
            "name": "Altmorschen",
            "coordinates": {
                "lat": 51.0705365,
                "lng": 9.6179621
            }
        },
        {
            "name": "Heinebach",
            "coordinates": {
                "lat": 51.0481338,
                "lng": 9.665697699999999
            }
        },
        {
            "name": "Rotenburg a.d. Fulda",
            "coordinates": {
                "lat": 50.9995571,
                "lng": 9.7309388
            }
        },
        {
            "name": "Lispenhausen",
            "coordinates": {
                "lat": 50.9919283,
                "lng": 9.7709555
            }
        },
        {
            "name": "Bebra",
            "coordinates": {
                "lat": 50.9688842,
                "lng": 9.797341699999999
            }
        },
        {
            "name": "Ludwigsau-Friedlos",
            "coordinates": {
                "lat": 50.8996867,
                "lng": 9.7420035
            }
        },
        {
            "name": "Bad Hersfeld",
            "coordinates": {
                "lat": 50.8701345,
                "lng": 9.7019675
            }
        },
        {
            "name": "Haunetal-Neukirchen",
            "coordinates": {
                "lat": 50.77122259999999,
                "lng": 9.6946928
            }
        },
        {
            "name": "Burghaun(Hünfeld)",
            "coordinates": {
                "lat": 50.6962498,
                "lng": 9.724823599999999
            }
        },
        {
            "name": "Hünfeld",
            "coordinates": {
                "lat": 50.6726672,
                "lng": 9.769045499999999
            }
        },
        {
            "name": "Göttingen",
            "coordinates": {
                "lat": 51.54128040000001,
                "lng": 9.915803499999999
            }
        },
        {
            "name": "Friedland(Han)",
            "coordinates": {
                "lat": 51.42109800000001,
                "lng": 9.9121688
            }
        },
        {
            "name": "Eichenberg",
            "coordinates": {
                "lat": 50.5454513,
                "lng": 10.6589723
            }
        },
        {
            "name": "Witzenhausen Nord",
            "coordinates": {
                "lat": 51.3514965,
                "lng": 9.8631731
            }
        },
        {
            "name": "Gertenbach",
            "coordinates": {
                "lat": 51.3777781,
                "lng": 9.805095699999999
            }
        },
        {
            "name": "Hedemünden",
            "coordinates": {
                "lat": 51.3913664,
                "lng": 9.761589299999999
            }
        },
        {
            "name": "Hann Münden",
            "coordinates": {
                "lat": 51.419285,
                "lng": 9.6557588
            }
        },
        {
            "name": "Speele",
            "coordinates": {
                "lat": 51.3791984,
                "lng": 9.5653762
            }
        },
        {
            "name": "Fuldatal-Ihringshausen",
            "coordinates": {
                "lat": 51.3502552,
                "lng": 9.5230546
            }
        },
        {
            "name": "Vellmar-Niedervellmar",
            "coordinates": {
                "lat": 51.3538702,
                "lng": 9.4731537
            }
        },
        {
            "name": "Bad Wildungen",
            "coordinates": {
                "lat": 51.1178991,
                "lng": 9.1219134
            }
        },
        {
            "name": "Wega",
            "coordinates": {
                "lat": 51.1306791,
                "lng": 9.175645
            }
        },
        {
            "name": "Mandern",
            "coordinates": {
                "lat": 49.6056733,
                "lng": 6.769810499999999
            }
        },
        {
            "name": "Ungedanken",
            "coordinates": {
                "lat": 51.120979,
                "lng": 9.223314799999999
            }
        },
        {
            "name": "Fritzlar",
            "coordinates": {
                "lat": 51.1330809,
                "lng": 9.2742641
            }
        },
        {
            "name": "Zennern",
            "coordinates": {
                "lat": 51.1104624,
                "lng": 9.313897299999999
            }
        },
        {
            "name": "Friedberg Süd",
            "coordinates": {
                "lat": 50.3202819,
                "lng": 8.7475702
            }
        },
        {
            "name": "Rosbach v d Höhe",
            "coordinates": {
                "lat": 50.3007398,
                "lng": 8.692732699999999
            }
        },
        {
            "name": "Rodheim v d Höhe",
            "coordinates": {
                "lat": 50.2659686,
                "lng": 8.7001153
            }
        },
        {
            "name": "Burgholzhausen v d H",
            "coordinates": {
                "lat": 50.2549849,
                "lng": 8.6759652
            }
        },
        {
            "name": "Albshausen",
            "coordinates": {
                "lat": 48.6914425,
                "lng": 9.565065599999999
            }
        },
        {
            "name": "Solms",
            "coordinates": {
                "lat": 50.5519629,
                "lng": 8.4165038
            }
        },
        {
            "name": "Leun/Braunfels",
            "coordinates": {
                "lat": 50.5454362,
                "lng": 8.3620748
            }
        },
        {
            "name": "Stockhausen(Lahn)",
            "coordinates": {
                "lat": 50.54499560000001,
                "lng": 8.3234357
            }
        },
        {
            "name": "Löhnberg",
            "coordinates": {
                "lat": 50.51112209999999,
                "lng": 8.2703227
            }
        },
        {
            "name": "Weilburg",
            "coordinates": {
                "lat": 50.4859255,
                "lng": 8.2722569
            }
        },
        {
            "name": "Gräveneck",
            "coordinates": {
                "lat": 50.44979499999999,
                "lng": 8.2601025
            }
        },
        {
            "name": "Fürfurt",
            "coordinates": {
                "lat": 50.4301511,
                "lng": 8.2544113
            }
        },
        {
            "name": "Aumenau",
            "coordinates": {
                "lat": 50.4039841,
                "lng": 8.2475141
            }
        },
        {
            "name": "Arfurt(Lahn)",
            "coordinates": {
                "lat": 50.4092943,
                "lng": 8.2001774
            }
        },
        {
            "name": "Villmar",
            "coordinates": {
                "lat": 50.3918386,
                "lng": 8.192563
            }
        },
        {
            "name": "Runkel",
            "coordinates": {
                "lat": 50.4053547,
                "lng": 8.153041199999999
            }
        },
        {
            "name": "Kerkerbach",
            "coordinates": {
                "lat": 50.4721297,
                "lng": 8.1717515
            }
        },
        {
            "name": "Diez",
            "coordinates": {
                "lat": 50.3706368,
                "lng": 8.016054
            }
        },
        {
            "name": "Fachingen(Lahn)",
            "coordinates": {
                "lat": 50.36097609999999,
                "lng": 7.9924091
            }
        },
        {
            "name": "Balduinstein",
            "coordinates": {
                "lat": 50.3465542,
                "lng": 7.9700776
            }
        },
        {
            "name": "Laurenburg(Lahn)",
            "coordinates": {
                "lat": 50.33088129999999,
                "lng": 7.9111371
            }
        },
        {
            "name": "Obernhof(Lahn)",
            "coordinates": {
                "lat": 50.3156856,
                "lng": 7.852115400000001
            }
        },
        {
            "name": "Nassau(Lahn)",
            "coordinates": {
                "lat": 50.3147061,
                "lng": 7.7996095
            }
        },
        {
            "name": "Dausenau",
            "coordinates": {
                "lat": 50.3289501,
                "lng": 7.761589600000001
            }
        },
        {
            "name": "Bad Ems",
            "coordinates": {
                "lat": 50.33805599999999,
                "lng": 7.710556
            }
        },
        {
            "name": "Bad Ems West",
            "coordinates": {
                "lat": 50.33805599999999,
                "lng": 7.710556
            }
        },
        {
            "name": "Nievern",
            "coordinates": {
                "lat": 50.3361876,
                "lng": 7.682653999999999
            }
        },
        {
            "name": "Friedrichssegen",
            "coordinates": {
                "lat": 50.3105513,
                "lng": 7.650375200000001
            }
        },
        {
            "name": "Bad Sooden-Allendorf",
            "coordinates": {
                "lat": 51.2703403,
                "lng": 9.980095700000001
            }
        },
        {
            "name": "Eschwege-Niederhone",
            "coordinates": {
                "lat": 51.1982491,
                "lng": 9.9993398
            }
        },
        {
            "name": "Eschwege",
            "coordinates": {
                "lat": 51.1876662,
                "lng": 10.0397725
            }
        },
        {
            "name": "Wehretal-Reichensachsen",
            "coordinates": {
                "lat": 51.15146499999999,
                "lng": 10.0021622
            }
        },
        {
            "name": "Sontra",
            "coordinates": {
                "lat": 51.0680551,
                "lng": 9.935365299999999
            }
        },
        {
            "name": "Hanau Nord",
            "coordinates": {
                "lat": 50.1264123,
                "lng": 8.9283105
            }
        },
        {
            "name": "Bruchköbel",
            "coordinates": {
                "lat": 50.1824581,
                "lng": 8.9231185
            }
        },
        {
            "name": "Ostheim(Kr Hanau)",
            "coordinates": {
                "lat": 50.2191,
                "lng": 8.903381000000001
            }
        },
        {
            "name": "Nidderau",
            "coordinates": {
                "lat": 50.2465175,
                "lng": 8.8830827
            }
        },
        {
            "name": "Assenheim(Oberhess)",
            "coordinates": {
                "lat": 50.3048578,
                "lng": 8.812314299999999
            }
        },
        {
            "name": "Diez Ost",
            "coordinates": {
                "lat": 50.3759717,
                "lng": 8.0383514
            }
        },
        {
            "name": "Staffel",
            "coordinates": {
                "lat": 50.3967819,
                "lng": 8.0377644
            }
        },
        {
            "name": "Elz(Limburg/Lahn) Süd",
            "coordinates": {
                "lat": 50.3823249,
                "lng": 8.0958135
            }
        },
        {
            "name": "Niedererbach",
            "coordinates": {
                "lat": 50.425959,
                "lng": 7.974065500000001
            }
        },
        {
            "name": "Dreikirchen",
            "coordinates": {
                "lat": 50.4478659,
                "lng": 7.9568033
            }
        },
        {
            "name": "Steinefrenz",
            "coordinates": {
                "lat": 50.4595041,
                "lng": 7.9334744
            }
        },
        {
            "name": "Girod",
            "coordinates": {
                "lat": 50.4507534,
                "lng": 7.9108975
            }
        },
        {
            "name": "Goldhausen",
            "coordinates": {
                "lat": 50.4611651,
                "lng": 7.881348000000001
            }
        },
        {
            "name": "Dernbach(Westerw)",
            "coordinates": {
                "lat": 50.4555991,
                "lng": 7.792266300000001
            }
        },
        {
            "name": "Wirges",
            "coordinates": {
                "lat": 50.4716095,
                "lng": 7.7961968
            }
        },
        {
            "name": "Siershahn",
            "coordinates": {
                "lat": 50.4842722,
                "lng": 7.7781517
            }
        },
        {
            "name": "Au(Sieg)",
            "coordinates": {
                "lat": 50.7723798,
                "lng": 7.654951
            }
        },
        {
            "name": "Geilhausen",
            "coordinates": {
                "lat": 50.7710716,
                "lng": 7.6400771
            }
        },
        {
            "name": "Hohegrete",
            "coordinates": {
                "lat": 50.7667402,
                "lng": 7.636403700000001
            }
        },
        {
            "name": "Breitscheidt(Altenkirchen, Ww)",
            "coordinates": {
                "lat": 50.7535417,
                "lng": 7.6608873
            }
        },
        {
            "name": "Kloster Marienthal",
            "coordinates": {
                "lat": 50.738580,
                "lng": 7.668603
            }
        },
        {
            "name": "Obererbach",
            "coordinates": {
                "lat": 50.7164107,
                "lng": 7.6619717
            }
        },
        {
            "name": "Altenkirchen(Westerwald)",
            "coordinates": {
                "lat": 50.687222,
                "lng": 7.645556000000001
            }
        },
        {
            "name": "Ingelbach",
            "coordinates": {
                "lat": 50.68297099999999,
                "lng": 7.7073104
            }
        },
        {
            "name": "Hattert",
            "coordinates": {
                "lat": 50.6645368,
                "lng": 7.7671685
            }
        },
        {
            "name": "Hachenburg",
            "coordinates": {
                "lat": 50.6594651,
                "lng": 7.820962199999999
            }
        },
        {
            "name": "Unnau-Korb",
            "coordinates": {
                "lat": 50.6534658,
                "lng": 7.890695900000001
            }
        },
        {
            "name": "Nistertal-Bad Marienberg",
            "coordinates": {
                "lat": 50.62688989999999,
                "lng": 7.892644199999999
            }
        },
        {
            "name": "Büdingen(Westerw)",
            "coordinates": {
                "lat": 50.2862963,
                "lng": 9.111383799999999
            }
        },
        {
            "name": "Enspel",
            "coordinates": {
                "lat": 50.6165505,
                "lng": 7.885419600000001
            }
        },
        {
            "name": "Rotenhain",
            "coordinates": {
                "lat": 50.59996959999999,
                "lng": 7.881199799999998
            }
        },
        {
            "name": "Langenhahn",
            "coordinates": {
                "lat": 50.5833079,
                "lng": 7.9183753
            }
        },
        {
            "name": "Westerburg",
            "coordinates": {
                "lat": 50.5624894,
                "lng": 7.9714527
            }
        },
        {
            "name": "Willmenrod",
            "coordinates": {
                "lat": 50.5407957,
                "lng": 7.979998399999999
            }
        },
        {
            "name": "Berzhahn",
            "coordinates": {
                "lat": 50.5376603,
                "lng": 8.004248
            }
        },
        {
            "name": "Wilsenroth",
            "coordinates": {
                "lat": 50.5291103,
                "lng": 8.0219875
            }
        },
        {
            "name": "Frickhofen",
            "coordinates": {
                "lat": 50.505456,
                "lng": 8.0251364
            }
        },
        {
            "name": "Niederzeuzheim",
            "coordinates": {
                "lat": 50.47092989999999,
                "lng": 8.0350839
            }
        },
        {
            "name": "Hadamar",
            "coordinates": {
                "lat": 50.4468164,
                "lng": 8.0454623
            }
        },
        {
            "name": "Niederhadamar",
            "coordinates": {
                "lat": 50.4353535,
                "lng": 8.0345794
            }
        },
        {
            "name": "Elz(Limburg/Lahn)",
            "coordinates": {
                "lat": 50.4141428,
                "lng": 8.028480600000002
            }
        }
    ],
    "routes": [
        "https://www.zugfinder.de/kbs.php?kbs=650",
        "https://www.zugfinder.de/kbs.php?kbs=651",
        "https://www.zugfinder.de/kbs.php?kbs=655",
        "https://www.zugfinder.de/kbs.php?kbs=471",
        "https://www.zugfinder.de/kbs.php?kbs=466",
        "https://www.zugfinder.de/kbs.php?kbs=646",
        "https://www.zugfinder.de/kbs.php?kbs=640",
        "https://www.zugfinder.de/kbs.php?kbs=643",
        "https://www.zugfinder.de/kbs.php?kbs=637",
        "https://www.zugfinder.de/kbs.php?kbs=472",
        "https://www.zugfinder.de/kbs.php?kbs=466",
        "https://www.zugfinder.de/kbs.php?kbs=615",
        "https://www.zugfinder.de/kbs.php?kbs=627",
        "https://www.zugfinder.de/kbs.php?kbs=630",
        "https://www.zugfinder.de/kbs.php?kbs=445",
        "https://www.zugfinder.de/kbs.php?kbs=620",
        "https://www.zugfinder.de/kbs.php?kbs=465",
        "https://www.zugfinder.de/kbs.php?kbs=610",
        "https://www.zugfinder.de/kbs.php?kbs=611",
        "https://www.zugfinder.de/kbs.php?kbs=621",
        "https://www.zugfinder.de/kbs.php?kbs=613",
        "https://www.zugfinder.de/kbs.php?kbs=615",
        "https://www.zugfinder.de/kbs.php?kbs=625",
        "https://www.zugfinder.de/kbs.php?kbs=636",
        "https://www.zugfinder.de/kbs.php?kbs=633",
        "https://www.zugfinder.de/kbs.php?kbs=461",
        "https://www.zugfinder.de/kbs.php?kbs=629"
    ]
}